{"updated_at": "2026-04-02T13:40:33.987924Z", "source": "City of San Antonio Open Data", "count": 1390, "points": [{"lng": -98.495337, "lat": 29.557579, "category": "commercial", "permit_type": "", "permit_number": "COM-IFO-PMT21-40500065", "project_name": "Zachry Corporation Office Building No: 1; Unit No: N/A", "work_type": "New", "address": "14410 WURZBACH PARKWAY, City of San Antonio, TX 78216", "date_issued": "4/14/2021", "valuation": 4800000.0}, {"lng": -98.45462, "lat": 29.6458, "category": "commercial", "permit_type": "", "permit_number": "MEP-PLM-PMT21-34312948", "project_name": "281 STONE OAK APARTMENTS", "work_type": "NULL", "address": "21100 N N US HWY 281 HWY, City of San Antonio, TX 78258", "date_issued": "4/22/2021", "valuation": 0}, {"lng": -98.471563, "lat": 29.437571, "category": "commercial", "permit_type": "", "permit_number": "COM-RML-PMT21-40000352", "project_name": "**Migrated** Spec Office Remodel", "work_type": "Existing", "address": "1602 N IH 35, City of San Antonio, TX 78208", "date_issued": "5/28/2021", "valuation": 215001.0}, {"lng": -98.595403, "lat": 29.467766, "category": "commercial", "permit_type": "", "permit_number": "MEP-GAS-PMT21-34219540", "project_name": "IDEA SCHOOL", "work_type": "NULL", "address": "3115 MAJESTIC DR, City of San Antonio, TX 78228", "date_issued": "6/17/2021", "valuation": 0}, {"lng": -98.6991, "lat": 29.482025, "category": "commercial", "permit_type": "", "permit_number": "COM-SIT-PMT21-40100214", "project_name": "Offices at Rogers Creek 5230 Rogers Rd - Lot 6 & 5250 Rogers Rd - Lot 7", "work_type": "New", "address": "5250 ROGERS RD, City of San Antonio, TX 78251", "date_issued": "6/18/2021", "valuation": 2000000.0}, {"lng": -98.596733, "lat": 29.60294, "category": "commercial", "permit_type": "", "permit_number": "COM-BLG-PMT21-40200243", "project_name": "**Migrated**Tru Hotel at the Rim", "work_type": "New", "address": "5639 RIM PASS, City of San Antonio, TX 78257", "date_issued": "7/13/2021", "valuation": 4000000.0}, {"lng": -98.5299, "lat": 29.60335, "category": "commercial", "permit_type": "", "permit_number": "COM-RML-PMT21-40000738", "project_name": "Complex Plans - 2338 N Loop 1604 W, Suite 110 - Stewart Title Main Office", "work_type": "Existing", "address": "2338 N 1604 W, City of San Antonio, TX 78248", "date_issued": "9/23/2021", "valuation": 431963.0}, {"lng": 98.533591, "lat": 29.392674, "category": "commercial", "permit_type": "", "permit_number": "MEP-SEW-PMT21-34831575", "project_name": "Carroll | Commercial Sewer", "work_type": "NULL", "address": "626 CARROLL AVE, City of San Antonio, TX 78225", "date_issued": "9/24/2021", "valuation": 0}, {"lng": -98.552213, "lat": 29.541334, "category": "commercial", "permit_type": "", "permit_number": "COM-RML-PMT21-40000948", "project_name": "Complex Plans - Wurzbach Offices", "work_type": "Existing", "address": "10935 WURZBACH RD, City of San Antonio, TX 78230", "date_issued": "11/30/2021", "valuation": 45000.0}, {"lng": -98.49551, "lat": 29.549928, "category": "commercial", "permit_type": "", "permit_number": "COM-RML-PMT22-40000169", "project_name": "Minor Plans - AmeriSurveyors Office Renovation", "work_type": "Existing", "address": "11815 WARFIELD, City of San Antonio, TX 78216", "date_issued": "3/4/2022", "valuation": 650000.0}, {"lng": -98.54623, "lat": 29.506999, "category": "commercial", "permit_type": "", "permit_number": "COM-SIT-PMT22-40100080", "project_name": "Complex Plans - Medical Clinic- Office Building 3202 Cherry Ridge Dr", "work_type": "New", "address": "3202 CHERRY RIDGE DR, City of San Antonio, TX 78230", "date_issued": "3/8/2022", "valuation": 2709417.0}, {"lng": -98.49993, "lat": 29.504853, "category": "commercial", "permit_type": "", "permit_number": "COM-RML-PMT22-40000204", "project_name": "Minor Plans -  6901 San Pedro Ave., Suite 102 / Village Medical Space Remodel", "work_type": "Existing", "address": "6901 SAN PEDRO AVE, City of San Antonio, TX 78216", "date_issued": "3/15/2022", "valuation": 0}, {"lng": -98.486006, "lat": 29.424583, "category": "commercial", "permit_type": "", "permit_number": "COM-RML-PMT22-40000211", "project_name": "Complex Plans - Menger Hotel - Rita & Taco", "work_type": "Existing", "address": "204 ALAMO PLAZA, City of San Antonio, TX 78205", "date_issued": "3/18/2022", "valuation": 47500.0}, {"lng": -98.593661, "lat": 29.523836, "category": "commercial", "permit_type": "", "permit_number": "COM-SIT-PMT22-40100128", "project_name": "Complex Plans - Amenity Center / Med Center & Leasing Office", "work_type": "New", "address": "8642 OAKLAND RD, City of San Antonio, TX 78240", "date_issued": "3/21/2022", "valuation": 1999798.0}, {"lng": -98.6142, "lat": 29.54417, "category": "commercial", "permit_type": "", "permit_number": "COM-RML-PMT22-40000246", "project_name": "Minor Plans - Village Medical - 6393 BABCOCK RD", "work_type": "Existing", "address": "6393 BABCOCK RD, City of San Antonio, TX 78240", "date_issued": "3/28/2022", "valuation": 625000.0}, {"lng": -98.46566, "lat": 29.6223, "category": "commercial", "permit_type": "", "permit_number": "COM-SIT-PMT22-40100125", "project_name": "Complex Plans - MM-SP- Mobile Office", "work_type": "New", "address": "19273 N US HWY 281, City of San Antonio, TX 78258", "date_issued": "3/28/2022", "valuation": 18012.0}, {"lng": -98.442446, "lat": 29.603983, "category": "commercial", "permit_type": "", "permit_number": "COM-SHD-PMT22-41200044", "project_name": "Minor Structures - Redland Plaza Retail", "work_type": "New", "address": "2907 N 1604 E, City of San Antonio, TX 78259", "date_issued": "3/30/2022", "valuation": 95000.0}, {"lng": -98.442446, "lat": 29.603983, "category": "commercial", "permit_type": "", "permit_number": "COM-SWM-PMT22-41400005", "project_name": "Minor Structures - Redland Plaza Retail", "work_type": "New", "address": "2907 N 1604 E, City of San Antonio, TX 78259", "date_issued": "3/30/2022", "valuation": 95000.0}, {"lng": -98.668717, "lat": 29.548415, "category": "commercial", "permit_type": "", "permit_number": "COM-RML-PMT22-40000323", "project_name": "Minor Plans - Goldfish Swim School", "work_type": "Existing", "address": "11643 BANDERA RD, City of San Antonio, TX 78254", "date_issued": "4/25/2022", "valuation": 750000.0}, {"lng": -98.668717, "lat": 29.548415, "category": "commercial", "permit_type": "", "permit_number": "COM-SWM-PMT22-41400008", "project_name": "Minor Plans - Goldfish Swim School", "work_type": "New", "address": "11643 BANDERA RD, City of San Antonio, TX 78254", "date_issued": "4/25/2022", "valuation": 750000.0}, {"lng": -98.44774, "lat": 29.353902, "category": "commercial", "permit_type": "", "permit_number": "COM-SHL-PMT22-40400033", "project_name": "AFF - Complex Plans - B#1 STE#1116 RETAIL - 7310 NEW BRAUNFELS", "work_type": "New", "address": "7310 S NEW BRAUNFELS AVE, City of San Antonio, TX 78223", "date_issued": "4/27/2022", "valuation": 85000.0}, {"lng": -98.44774, "lat": 29.353902, "category": "commercial", "permit_type": "", "permit_number": "COM-SHL-PMT22-40400034", "project_name": "AFF - Complex Plans - B#5 STE#5116 RETAIL - 7310 NEW BRAUNFELS", "work_type": "New", "address": "7310 S NEW BRAUNFELS AVE, City of San Antonio, TX 78223", "date_issued": "4/27/2022", "valuation": 85000.0}, {"lng": -98.493469, "lat": 29.42631, "category": "commercial", "permit_type": "", "permit_number": "COM-RML-PMT22-40000290", "project_name": "Complex Plans - Rand Garage Restaurant Shell", "work_type": "Existing", "address": "110 E Houston ST, City of San Antonio, TX 78205", "date_issued": "4/30/2022", "valuation": 575000.0}, {"lng": -98.59013, "lat": 29.512791, "category": "commercial", "permit_type": "", "permit_number": "COM-RML-PMT22-40000325", "project_name": "Complex Plans - Christus Santa Rosa Medical Center 2nd Floor Xray Equipment Replacement", "work_type": "Existing", "address": "2827 BABCOCK RD, City of San Antonio, TX 78229", "date_issued": "5/18/2022", "valuation": 450000.0}, {"lng": -98.603204, "lat": 29.466914, "category": "commercial", "permit_type": "", "permit_number": "COM-RML-PMT22-40000448", "project_name": "Minor Plans - Village Medical - 6017 Ingram Rd. Suite 102", "work_type": "Existing", "address": "6017 INGRAM RD, City of San Antonio, TX 78238", "date_issued": "6/2/2022", "valuation": 625000.0}, {"lng": -98.467213, "lat": 29.453301, "category": "commercial", "permit_type": "", "permit_number": "COM-RML-PMT22-40000461", "project_name": "Complex Plans - Building C The Parker Apartments Interior & Exterior Modifications - Building C", "work_type": "Existing", "address": "1235 E MULBERRY AVE, City of San Antonio, TX 78209", "date_issued": "6/6/2022", "valuation": 300000.0}, {"lng": -98.480694, "lat": 29.351543, "category": "commercial", "permit_type": "", "permit_number": "COM-SIT-PMT22-40100242", "project_name": "Site Work - Patel Offices - 3702 Roosevelt Ave.", "work_type": "New", "address": "3702 ROOSEVELT AVE, City of San Antonio, TX 78214", "date_issued": "6/6/2022", "valuation": 50000.0}, {"lng": -98.467614, "lat": 29.453364, "category": "commercial", "permit_type": "", "permit_number": "COM-RML-PMT22-40000475", "project_name": "Complex Plans - Building D The Parker Apartments Interior & Exterior Modifications - Building D", "work_type": "Existing", "address": "1235 E MULBERRY AVE, City of San Antonio, TX 78209", "date_issued": "6/13/2022", "valuation": 300000.0}, {"lng": -98.46808, "lat": 29.453602, "category": "commercial", "permit_type": "", "permit_number": "COM-RML-PMT22-40000476", "project_name": "Complex Plans - Building G The Parker Apartments Interior & Exterior Modifications - Building G", "work_type": "Existing", "address": "1235 E MULBERRY AVE, City of San Antonio, TX 78209", "date_issued": "6/13/2022", "valuation": 300000.0}, {"lng": -98.468007, "lat": 29.453235, "category": "commercial", "permit_type": "", "permit_number": "COM-RML-PMT22-40000477", "project_name": "Complex Plans - Building F The Parker Apartments Interior & Exterior Modifications - Building F", "work_type": "Existing", "address": "1235 E MULBERRY AVE, City of San Antonio, TX 78209", "date_issued": "6/13/2022", "valuation": 300000.0}, {"lng": -98.467669, "lat": 29.45356, "category": "commercial", "permit_type": "", "permit_number": "COM-RML-PMT22-40000478", "project_name": "Complex Plans - Building E The Parker Apartments Interior & Exterior Modifications - Building E", "work_type": "Existing", "address": "1235 E MULBERRY AVE, City of San Antonio, TX 78209", "date_issued": "6/13/2022", "valuation": 300000.0}, {"lng": -98.59246, "lat": 29.589008, "category": "commercial", "permit_type": "", "permit_number": "COM-MON-PMT22-40900005", "project_name": "Complex Plans - Grandview II Apartments -15506 Interplace", "work_type": "New", "address": "15506 INTERPLACE, City of San Antonio, TX 78249", "date_issued": "6/14/2022", "valuation": 0}, {"lng": -98.598508, "lat": 29.61086, "category": "commercial", "permit_type": "", "permit_number": "COM-RML-PMT22-40000487", "project_name": "Minor Plans - ReNu Medical Spa", "work_type": "Existing", "address": "5822 WORTH PARKWAY, City of San Antonio, TX 78257", "date_issued": "6/16/2022", "valuation": 56000.0}, {"lng": -98.647397, "lat": 29.572483, "category": "commercial", "permit_type": "", "permit_number": "COM-RML-PMT22-40000546", "project_name": "Minor Plans - Suite 112 MissionVet Admin Offices", "work_type": "Existing", "address": "8202 N 1604 W, City of San Antonio, TX 78249", "date_issued": "7/6/2022", "valuation": 47000.0}, {"lng": -98.468553, "lat": 29.496259, "category": "commercial", "permit_type": "", "permit_number": "COM-RML-PMT22-40000530", "project_name": "Minor Plans - PNC TX San Antonio Lincoln Heights E Basse Rd. Retail Reno", "work_type": "Existing", "address": "990 E BASSE RD, City of San Antonio, TX 78209", "date_issued": "7/13/2022", "valuation": 30000.0}, {"lng": -98.627018, "lat": 29.424524, "category": "commercial", "permit_type": "", "permit_number": "COM-RML-PMT21-40000411", "project_name": "Complex Plans - Candleridge Apartments Remodel", "work_type": "Existing", "address": "7979 W MILITARY DR, City of San Antonio, TX 78227", "date_issued": "7/25/2022", "valuation": 65000.0}, {"lng": -98.551206, "lat": 29.225832, "category": "commercial", "permit_type": "", "permit_number": "COM-SIT-PMT22-40100171", "project_name": "Complex Plans - Applewhite Commercial  & Delicakes Kitchen - 19851 Applewhite Rd - Lot 1", "work_type": "New", "address": "19851 APPLEWHITE RD, City of San Antonio, TX 78264", "date_issued": "8/9/2022", "valuation": 720000.0}, {"lng": -98.704431, "lat": 29.497311, "category": "commercial", "permit_type": "", "permit_number": "COM-RML-PMT22-40000548", "project_name": "Minor Plans - Eyemart Express Retail Area", "work_type": "Existing", "address": "6419 W 1604 N, City of San Antonio, TX 78254", "date_issued": "8/10/2022", "valuation": 212000.0}, {"lng": -98.49607, "lat": 29.548375, "category": "commercial", "permit_type": "", "permit_number": "COM-RML-PMT22-40000708", "project_name": "Minor Plans - 11722 Warfield / Orbcon Offices", "work_type": "Existing", "address": "11722 WARFIELD, City of San Antonio, TX 78216", "date_issued": "8/26/2022", "valuation": 56000.0}, {"lng": -98.484764, "lat": 29.550043, "category": "commercial", "permit_type": "", "permit_number": "COM-RML-PMT22-40000795", "project_name": "Minor Plans - San Antonio Fire and Police Healthcare Fund Office", "work_type": "Existing", "address": "11603 W COKER LOOP, City of San Antonio, TX 78216", "date_issued": "10/3/2022", "valuation": 900000.0}, {"lng": -98.454533, "lat": 29.64659, "category": "commercial", "permit_type": "", "permit_number": "COM-SWM-PMT22-41400018", "project_name": "Minor Plans - 21915 US HWY 281 - Commercial Pool", "work_type": "New", "address": "21915 N US HWY 281, City of San Antonio, TX 78258", "date_issued": "10/3/2022", "valuation": 355000.0}, {"lng": -98.540078, "lat": 29.329611, "category": "commercial", "permit_type": "", "permit_number": "COM-SIT-PMT22-40100449", "project_name": "Phased-Complex Plans - Gillette Plaza Retail Shell Building", "work_type": "New", "address": "1354 GILLETTE BLVD, City of San Antonio, TX 78224", "date_issued": "10/15/2022", "valuation": 950000.0}, {"lng": -98.495989, "lat": 29.439809, "category": "commercial", "permit_type": "", "permit_number": "COM-RML-PMT22-40000806", "project_name": "Minor Plans-Sage Music School - 209 W. Poplar St.", "work_type": "Existing", "address": "209 W POPLAR ST, City of San Antonio, TX 78212", "date_issued": "10/17/2022", "valuation": 648480.0}, {"lng": -98.495989, "lat": 29.439809, "category": "commercial", "permit_type": "", "permit_number": "COM-SIT-PMT22-40100442", "project_name": "Minor Plans-Sage Music School - 209 W. Poplar St.", "work_type": "New", "address": "209 W POPLAR ST, City of San Antonio, TX 78212", "date_issued": "10/17/2022", "valuation": 0}, {"lng": -98.480452, "lat": 29.443736, "category": "commercial", "permit_type": "", "permit_number": "COM-RML-PMT22-40000727", "project_name": "Complex Plans - WestEast Design Group Office Renovation", "work_type": "Existing", "address": "200 E GRAYSON ST, City of San Antonio, TX 78215", "date_issued": "10/28/2022", "valuation": 1000000.0}, {"lng": -98.592605, "lat": 29.527807, "category": "commercial", "permit_type": "", "permit_number": "COM-RML-PMT22-40000937", "project_name": "Minor Plans - Texas Center for Athletes: Management Office", "work_type": "Existing", "address": "21 SPURS LN, City of San Antonio, TX 78240", "date_issued": "12/5/2022", "valuation": 55000.0}, {"lng": -98.589697, "lat": 29.419858, "category": "commercial", "permit_type": "", "permit_number": "COM-SIT-PMT22-40100531", "project_name": "Complex Plans - Golden Chick Restaurant", "work_type": "New", "address": "1251 ENRIQUE M BARRERA HWY, City of San Antonio, TX 78227", "date_issued": "12/8/2022", "valuation": 1110000.0}, {"lng": -98.466604, "lat": 29.38393, "category": "commercial", "permit_type": "", "permit_number": "COM-SIT-PMT22-40100214", "project_name": "Complex Plans - 618 Fair Ave. / Ro-HoTake out Restaurant", "work_type": "New", "address": "618 FAIR AVE, City of San Antonio, TX 78223", "date_issued": "12/12/2022", "valuation": 170000.0}, {"lng": -98.3843, "lat": 29.540368, "category": "commercial", "permit_type": "", "permit_number": "COM-SIT-PMT22-40100114", "project_name": "Phased-Complex Plans - Shell Building on Existing Slab", "work_type": "New", "address": "11100 OSGOOD DR, City of San Antonio, TX 78233", "date_issued": "12/14/2022", "valuation": 265000.0}, {"lng": -98.635965, "lat": 29.436559, "category": "commercial", "permit_type": "", "permit_number": "COM-BLG-PMT22-40201201", "project_name": "SP Texas Biomedical Research Institute Bldg No: 73", "work_type": "New", "address": "8715 W MILITARY DR, City of San Antonio, TX 78227", "date_issued": "12/19/2022", "valuation": 25800000.0}, {"lng": -98.677654, "lat": 29.43814, "category": "commercial", "permit_type": "", "permit_number": "COM-SIT-PMT23-40100058", "project_name": "Phased-Complex Plans - Potranco Retail Building (Shell)", "work_type": "New", "address": "9626 POTRANCO RD, City of San Antonio, TX 78251", "date_issued": "2/13/2023", "valuation": 751300.0}, {"lng": -98.464368, "lat": 29.461342, "category": "commercial", "permit_type": "", "permit_number": "COM-ADD-PMT23-39900048", "project_name": "Circle School - Bld# 5  Classroom# 101 Addition", "work_type": "New", "address": "217 PERSHING AVE, City of San Antonio, TX 78209", "date_issued": "5/1/2023", "valuation": 0}, {"lng": -98.430381, "lat": 29.50484, "category": "commercial", "permit_type": "", "permit_number": "COM-SIT-PMT23-40100052", "project_name": "Site Work Tobin Estate Apartments Phase 3", "work_type": "New", "address": "3310 OAKWELL CT, City of San Antonio, TX 78218", "date_issued": "5/22/2023", "valuation": 500000.0}, {"lng": -98.464628, "lat": 29.522167, "category": "commercial", "permit_type": "", "permit_number": "COM-SIT-PMT23-40100253", "project_name": "Complex Plans - Big State Electric - Office Addition", "work_type": "New", "address": "9007 AERO ST, City of San Antonio, TX 78217", "date_issued": "6/5/2023", "valuation": 92000.0}, {"lng": -98.341268, "lat": 29.580286, "category": "commercial", "permit_type": "", "permit_number": "COM-SIT-PMT23-40100290", "project_name": "Phased-Complex Plans - LOOKOUT ROAD - PAD 8 RETAIL SHELL", "work_type": "New", "address": "15319 LOOKOUT RD, City of San Antonio, TX 78154", "date_issued": "8/24/2023", "valuation": 2720000.0}, {"lng": -98.59713, "lat": 29.527176, "category": "commercial", "permit_type": "", "permit_number": "COM-SIT-PMT23-40100379", "project_name": "Phased-Complex Plans - HUEBNER MOB SHELL BUILDING", "work_type": "New", "address": "9043 HUEBNER RD, City of San Antonio, TX 78240", "date_issued": "8/24/2023", "valuation": 18020000.0}, {"lng": -98.451139, "lat": 29.635816, "category": "commercial", "permit_type": "", "permit_number": "COM-SIT-PMT23-40100402", "project_name": "Phased-Complex Plans - Evans Corner Retail Center", "work_type": "New", "address": "2407 E EVANS RD, City of San Antonio, TX 78259", "date_issued": "9/8/2023", "valuation": 580000.0}, {"lng": -98.550698, "lat": 29.293725, "category": "commercial", "permit_type": "", "permit_number": "COM-SIT-PMT23-40100393", "project_name": "Minor Plans - Zarzamora Warehouses", "work_type": "New", "address": "12622 S ZARZAMORA ST, City of San Antonio, TX 78224", "date_issued": "9/9/2023", "valuation": 1211000.0}, {"lng": -98.623431, "lat": 29.5899, "category": "commercial", "permit_type": "", "permit_number": "COM-SIT-PMT23-40100472", "project_name": "Phased-Complex Plans - Chase Hill Retail", "work_type": "New", "address": "15622 CHASE HILL BLVD, City of San Antonio, TX 78249", "date_issued": "11/3/2023", "valuation": 1125000.0}, {"lng": -98.686789, "lat": 29.465325, "category": "commercial", "permit_type": "", "permit_number": "COM-RML-PMT23-40000945", "project_name": "Building No: 1; Unit No: Hotel Guestrooms", "work_type": "Existing", "address": "9800 WESTOVER HILLS BLVD, City of San Antonio, TX 78251", "date_issued": "11/29/2023", "valuation": 0}, {"lng": -98.536921, "lat": 29.581904, "category": "commercial", "permit_type": "", "permit_number": "COM-SHD-PMT23-41200036", "project_name": "Complex Plans - Vineyard Christian School - Gymnasium", "work_type": "New", "address": "15302 HUEBNER RD, City of San Antonio, TX 78248", "date_issued": "1/23/2024", "valuation": 0}, {"lng": -98.41598, "lat": 29.355553, "category": "commercial", "permit_type": "", "permit_number": "COM-SIT-PMT24-40100010", "project_name": "Phased-Complex Plans - Neighbors Market NM Shell Building", "work_type": "New", "address": "4010 SE MILITARY DR, City of San Antonio, TX 78223", "date_issued": "2/1/2024", "valuation": 975000.0}, {"lng": -98.547121, "lat": 29.357905, "category": "commercial", "permit_type": "", "permit_number": "COM-SIT-PMT23-40100529", "project_name": "Site Work - Barlite Commercial - Private Access Drive", "work_type": "New", "address": "7115 BARLITE BLVD, City of San Antonio, TX 78224", "date_issued": "2/29/2024", "valuation": 160000.0}, {"lng": -98.442506, "lat": 29.347782, "category": "commercial", "permit_type": "", "permit_number": "COM-SIT-PMT24-40100130", "project_name": "Complex Plans - Los Cielos Leasing Office", "work_type": "New", "address": "3003 JOSUE SANCHEZ, City of San Antonio, TX 78235", "date_issued": "3/19/2024", "valuation": 650000.0}, {"lng": -98.566979, "lat": 29.525832, "category": "commercial", "permit_type": "", "permit_number": "COM-RML-PMT24-40000221", "project_name": "Building No: 1; Unit No: 101 --Tandoor Palace Indian Restaurant", "work_type": "Existing", "address": "9002 WURZBACH RD, City of San Antonio, TX 78240", "date_issued": "3/27/2024", "valuation": 0}, {"lng": -98.733399, "lat": 29.50576, "category": "commercial", "permit_type": "", "permit_number": "COM-SIT-PMT24-40100191", "project_name": "Phased-Complex Plans - SUDS CULEBRA - RETAIL DEVELOPMENT", "work_type": "New", "address": "12107 CULEBRA RD, San Antonio, TX 78253", "date_issued": "6/26/2024", "valuation": 1850000.0}, {"lng": -98.461372, "lat": 29.590055, "category": "commercial", "permit_type": "", "permit_number": "COM-SIT-PMT24-40100314", "project_name": "Phased-Complex Plans - Thousand Oaks Office Shell Building", "work_type": "New", "address": "2054 THOUSAND OAKS DR, City of San Antonio, TX 78232", "date_issued": "7/18/2024", "valuation": 1500000.0}, {"lng": -98.68926, "lat": 29.460601, "category": "commercial", "permit_type": "", "permit_number": "COM-SIT-PMT24-40100357", "project_name": "Phased-Complex Plans - TOWN CENTER MEDICAL OFFICES - BUILDING #3 & 4", "work_type": "New", "address": "10818 TOWN CENTER DR, City of San Antonio, TX 78251", "date_issued": "7/26/2024", "valuation": 2200000.0}, {"lng": -98.560479, "lat": 29.502498, "category": "commercial", "permit_type": "", "permit_number": "COM-SIT-PMT24-40100375", "project_name": "Site Work - Fred. Rd Retail - 5151 FREDERICKSBURG RD", "work_type": "New", "address": "5151 FREDERICKSBURG RD, City of San Antonio, TX 78229", "date_issued": "8/8/2024", "valuation": 49000.0}, {"lng": -98.518908, "lat": 29.607441, "category": "commercial", "permit_type": "", "permit_number": "COM-SWM-PMT24-41400017", "project_name": "Minor Structures - THE GREYSON APARTMENTS POOL", "work_type": "New", "address": "1734 N 1604 W, City of San Antonio, TX 78248", "date_issued": "8/15/2024", "valuation": 205634.0}, {"lng": -98.71034, "lat": 29.446646, "category": "commercial", "permit_type": "", "permit_number": "COM-SIT-PMT24-40100367", "project_name": "Phased-Complex Plans - 1604 & Military Retail", "work_type": "New", "address": "1322 W 1604 N, City of San Antonio, TX 78251", "date_issued": "8/24/2024", "valuation": 1500000.0}, {"lng": -98.5972, "lat": 29.602166, "category": "commercial", "permit_type": "", "permit_number": "COM-SIT-PMT24-40100434", "project_name": "Site Work - Rim Pass Hotel Sitework", "work_type": "New", "address": "5638 RIM PASS, City of San Antonio, TX 78257", "date_issued": "9/16/2024", "valuation": 1000000.0}, {"lng": -98.375542, "lat": 29.576266, "category": "commercial", "permit_type": "", "permit_number": "COM-SIT-PMT24-40100448", "project_name": "Site Work - Patel Dental Office", "work_type": "New", "address": "14823 NACOGDOCHES RD, City of San Antonio, TX 78247", "date_issued": "9/24/2024", "valuation": 625000.0}, {"lng": -98.615434, "lat": 29.553981, "category": "commercial", "permit_type": "", "permit_number": "COM-SIT-PMT24-40100195", "project_name": "Phased-Complex Plans - Babcock Retail", "work_type": "New", "address": "6540 BABCOCK RD, City of San Antonio, TX 78249", "date_issued": "10/24/2024", "valuation": 0}, {"lng": -98.597202, "lat": 29.602166, "category": "commercial", "permit_type": "", "permit_number": "COM-SIT-PMT24-40100503", "project_name": "Complex Plans - IHG Blended Hotel-Holiday Inn & Staybridge Inn & Suites", "work_type": "New", "address": "5638 RIM PASS, City of San Antonio, TX 78257", "date_issued": "11/12/2024", "valuation": 10750000.0}, {"lng": -98.491011, "lat": 29.426667, "category": "commercial", "permit_type": "", "permit_number": "MEP-ELE-PMT24-33335514", "project_name": "Gunter hotel", "work_type": "NULL", "address": "205 E HOUSTON ST, City of San Antonio, TX 78205", "date_issued": "12/10/2024", "valuation": 0}, {"lng": -98.489489, "lat": 29.354209, "category": "commercial", "permit_type": "", "permit_number": "REP-CRP-PMT24-35400580", "project_name": "6728 S Flores St Minor Commercial Repair", "work_type": "NULL", "address": "6728 S FLORES ST, City of San Antonio, TX 78221", "date_issued": "12/13/2024", "valuation": 0}, {"lng": -98.648032, "lat": 29.572765, "category": "commercial", "permit_type": "", "permit_number": "MEP-ELE-PMT24-33336032", "project_name": "Commercial wiring Wellness Center", "work_type": "NULL", "address": "8202 N 1604 W, City of San Antonio, TX 78249", "date_issued": "12/16/2024", "valuation": 0}, {"lng": -98.451453, "lat": 29.348079, "category": "commercial", "permit_type": "", "permit_number": "MEP-TOP-PMT24-33636013", "project_name": "The Kennedy Apartments TOPS", "work_type": "NULL", "address": "7714 KENNEDY HILL, City of San Antonio, TX 78235", "date_issued": "12/16/2024", "valuation": 0}, {"lng": -98.471183, "lat": 29.509267, "category": "commercial", "permit_type": "", "permit_number": "MEP-GAS-PMT24-34236298", "project_name": "MONTESSORI SCHOOL", "work_type": "NULL", "address": "1539 E SANDALWOOD LANE, City of San Antonio, TX 78209", "date_issued": "12/18/2024", "valuation": 0}, {"lng": -98.483468, "lat": 29.43148, "category": "commercial", "permit_type": "", "permit_number": "REP-CRP-PMT24-35400612", "project_name": "620 Broadway St Minor Commercial repair", "work_type": "NULL", "address": "620 BROADWAY, City of San Antonio, TX 78215", "date_issued": "12/18/2024", "valuation": 0}, {"lng": -98.430416, "lat": 29.609087, "category": "commercial", "permit_type": "", "permit_number": "MEP-ELE-PMT24-33336390", "project_name": "IES COMMERCIAL INC.", "work_type": "NULL", "address": "18215 CRYSTAL RIDGE DR, City of San Antonio, TX 78259", "date_issued": "12/19/2024", "valuation": 0}, {"lng": -98.577904, "lat": 29.510287, "category": "commercial", "permit_type": "", "permit_number": "TRE-AFF-PMT24-39002927", "project_name": "PLAT-24-11800452 - CFA 4715 Medical Dr site improvements", "work_type": "NULL", "address": "4715 MEDICAL DR, City of San Antonio, TX 78229", "date_issued": "12/19/2024", "valuation": 0}, {"lng": -98.532122, "lat": 29.323893, "category": "commercial", "permit_type": "", "permit_number": "MEP-PLM-PMT24-34336919", "project_name": "Greg A. Garcia Intermediate School - New Frontier", "work_type": "NULL", "address": "9550 S ZARZAMORA ST, City of San Antonio, TX 78224", "date_issued": "12/30/2024", "valuation": 0}, {"lng": -98.591631, "lat": 29.585647, "category": "commercial", "permit_type": "Plumbing Medical Gas Permit", "permit_number": "COM-ADD-PMT24-39900073", "project_name": "Methodist Landmark Hospital Expansion", "work_type": "New", "address": "5510 PRESIDIO, City of San Antonio, TX 78249", "date_issued": "2025-01-02", "valuation": 0}, {"lng": -98.497871, "lat": 29.359418, "category": "commercial", "permit_type": "Minor Commercial Repair Permit", "permit_number": "REP-CRP-PMT25-35400001", "project_name": "MISSION VILLAS SA LLC BLDG 2", "work_type": "", "address": "247 W DICKSON AVE, City of San Antonio, TX 78214", "date_issued": "2025-01-02", "valuation": 0}, {"lng": -98.497871, "lat": 29.359418, "category": "commercial", "permit_type": "Minor Commercial Repair Permit", "permit_number": "REP-CRP-PMT25-35400002", "project_name": "MISSION VILLAS SA LLC BLDG 9", "work_type": "", "address": "247 W DICKSON AVE, City of San Antonio, TX 78214", "date_issued": "2025-01-02", "valuation": 0}, {"lng": -98.497871, "lat": 29.359418, "category": "commercial", "permit_type": "Minor Commercial Repair Permit", "permit_number": "REP-CRP-PMT25-35400003", "project_name": "MISSION VILLAS SA LLC BLDG 11", "work_type": "", "address": "247 W DICKSON AVE, City of San Antonio, TX 78214", "date_issued": "2025-01-02", "valuation": 0}, {"lng": -98.497871, "lat": 29.359418, "category": "commercial", "permit_type": "Minor Commercial Repair Permit", "permit_number": "REP-CRP-PMT25-35400004", "project_name": "MISSION VILLAS SA LLC BLDG 12", "work_type": "", "address": "247 W DICKSON AVE, City of San Antonio, TX 78214", "date_issued": "2025-01-02", "valuation": 0}, {"lng": -98.497871, "lat": 29.359418, "category": "commercial", "permit_type": "Minor Commercial Repair Permit", "permit_number": "REP-CRP-PMT25-35400005", "project_name": "MISSION VILLAS SA LLC BLDG 13", "work_type": "", "address": "247 W DICKSON AVE, City of San Antonio, TX 78214", "date_issued": "2025-01-02", "valuation": 0}, {"lng": -98.534161, "lat": 29.410176, "category": "commercial", "permit_type": "Minor Commercial Repair Permit", "permit_number": "REP-CRP-PMT25-35400006", "project_name": "AFF - 103 SAN NICOLAS WALK", "work_type": "", "address": "103 SAN NICOLAS WALK, City of San Antonio, TX 78207", "date_issued": "2025-01-02", "valuation": 0}, {"lng": -98.406963, "lat": 29.460876, "category": "commercial", "permit_type": "Minor Commercial Repair Permit", "permit_number": "REP-CRP-PMT25-35400009", "project_name": "", "work_type": "", "address": "510 PETROLEUM DR, City of San Antonio, TX 78218", "date_issued": "2025-01-03", "valuation": 0}, {"lng": -98.547982, "lat": 29.573215, "category": "commercial", "permit_type": "Minor Commercial Repair Permit", "permit_number": "REP-CRP-PMT25-35400010", "project_name": "", "work_type": "", "address": "14603 HUEBNER RD, City of San Antonio, TX 78230", "date_issued": "2025-01-03", "valuation": 0}, {"lng": -98.511723, "lat": 29.450212, "category": "commercial", "permit_type": "Minor Commercial Repair Permit", "permit_number": "REP-CRP-PMT25-35400011", "project_name": "", "work_type": "", "address": "1241 W FRENCH PLACE, City of San Antonio, TX 78201", "date_issued": "2025-01-03", "valuation": 0}, {"lng": -98.4778, "lat": 29.611146, "category": "commercial", "permit_type": "Minor Commercial Repair Permit", "permit_number": "REP-CRP-PMT25-35400012", "project_name": "1011 N Loop 1604 E - Remodel", "work_type": "", "address": "1011 N 1604 E, City of San Antonio, TX 78232", "date_issued": "2025-01-03", "valuation": 0}, {"lng": -98.564504, "lat": 29.517226, "category": "commercial", "permit_type": "Mechanical Permit", "permit_number": "MEP-MEC-PMT25-33900239", "project_name": "4107 Medical Dr APT 8205", "work_type": "", "address": "4107 MEDICAL DR, City of San Antonio, TX 78229", "date_issued": "2025-01-05", "valuation": 0}, {"lng": -98.431458, "lat": 29.514348, "category": "commercial", "permit_type": "Minor Commercial Repair Permit", "permit_number": "REP-CRP-PMT25-35400013", "project_name": "Bldg 6 - #141,142, 241, 242, 341, 342.", "work_type": "", "address": "1946 NE 410, City of San Antonio, TX 78217", "date_issued": "2025-01-06", "valuation": 0}, {"lng": -98.588287, "lat": 29.410809, "category": "commercial", "permit_type": "Electrical General Permit", "permit_number": "MEP-ELE-PMT25-33300294", "project_name": "EISD Warehouse Future Power", "work_type": "", "address": "1119 S ACME RD, City of San Antonio, TX 78237", "date_issued": "2025-01-08", "valuation": 0}, {"lng": -98.569138, "lat": 29.488131, "category": "commercial", "permit_type": "Minor Commercial Repair Permit", "permit_number": "REP-CRP-PMT25-35400015", "project_name": "", "work_type": "", "address": "4415 CENTERVIEW, City of San Antonio, TX 78228", "date_issued": "2025-01-08", "valuation": 0}, {"lng": -98.457525, "lat": 29.516921, "category": "commercial", "permit_type": "Minor Commercial Repair Permit", "permit_number": "REP-CRP-PMT25-35400017", "project_name": "", "work_type": "", "address": "1027 NE 410, City of San Antonio, TX 78209", "date_issued": "2025-01-08", "valuation": 0}, {"lng": -98.491011, "lat": 29.426667, "category": "commercial", "permit_type": "Mechanical Permit", "permit_number": "MEP-MEC-PMT25-33900807", "project_name": "GUNTER HOTEL RENO", "work_type": "", "address": "205 E HOUSTON ST, City of San Antonio, TX 78205", "date_issued": "2025-01-10", "valuation": 0}, {"lng": -98.587996, "lat": 29.508856, "category": "commercial", "permit_type": "Mechanical Permit", "permit_number": "MEP-MEC-PMT25-33900816", "project_name": "Westgate Medical suite 210", "work_type": "", "address": "5282 MEDICAL DR, City of San Antonio, TX 78229", "date_issued": "2025-01-10", "valuation": 0}, {"lng": -98.48381, "lat": 29.615602, "category": "commercial", "permit_type": "Minor Commercial Repair Permit", "permit_number": "REP-CRP-PMT25-35400018", "project_name": "Suite 305", "work_type": "", "address": "777 E SONTERRA BLVD, City of San Antonio, TX 78258", "date_issued": "2025-01-10", "valuation": 0}, {"lng": -98.654077, "lat": 29.446357, "category": "commercial", "permit_type": "Plumbing Medical Gas Permit", "permit_number": "COM-RML-PMT25-40000022", "project_name": "Building No: 1; Unit No: 210", "work_type": "Existing", "address": "8610 POTRANCO RD, City of San Antonio, TX 78251", "date_issued": "2025-01-13", "valuation": 0}, {"lng": -98.471693, "lat": 29.594309, "category": "commercial", "permit_type": "Electrical General Permit", "permit_number": "MEP-ELE-PMT25-33300919", "project_name": "16664 N US HWY 281 - Electrical Karate School", "work_type": "", "address": "16664 N US HWY 281, City of San Antonio, TX 78232", "date_issued": "2025-01-13", "valuation": 0}, {"lng": -98.533629, "lat": 29.601686, "category": "commercial", "permit_type": "Plumbing General Permit", "permit_number": "MEP-PLM-PMT25-34300960", "project_name": "Commercial water heater", "work_type": "", "address": "2602 N 1604 W, City of San Antonio, TX 78248", "date_issued": "2025-01-13", "valuation": 0}, {"lng": -98.486889, "lat": 29.447156, "category": "commercial", "permit_type": "Minor Commercial Repair Permit", "permit_number": "REP-CRP-PMT25-35400019", "project_name": "", "work_type": "", "address": "621 E DEWEY PLACE, City of San Antonio, TX 78212", "date_issued": "2025-01-13", "valuation": 0}, {"lng": -98.536385, "lat": 29.5535, "category": "commercial", "permit_type": "Minor Commercial Repair Permit", "permit_number": "REP-CRP-PMT25-35400020", "project_name": "10003 NW Military HWY Suite 1124", "work_type": "", "address": "10003 NW MILITARY HWY, City of San Antonio, TX 78231", "date_issued": "2025-01-14", "valuation": 0}, {"lng": -98.531398, "lat": 29.358545, "category": "commercial", "permit_type": "Mechanical Permit", "permit_number": "MEP-MEC-PMT25-33901267", "project_name": "Office Depot #337", "work_type": "", "address": "2321 SW MILITARY DR, City of San Antonio, TX 78224", "date_issued": "2025-01-15", "valuation": 0}, {"lng": -98.60206, "lat": 29.409788, "category": "commercial", "permit_type": "Minor Commercial Repair Permit", "permit_number": "REP-CRP-PMT25-35400021", "project_name": "", "work_type": "", "address": "5757 W HWY 90, City of San Antonio, TX 78227", "date_issued": "2025-01-15", "valuation": 0}, {"lng": -98.427999, "lat": 29.519051, "category": "commercial", "permit_type": "Minor Commercial Repair Permit", "permit_number": "REP-CRP-PMT25-35400022", "project_name": "", "work_type": "", "address": "8715 VILLAGE DR, City of San Antonio, TX 78217", "date_issued": "2025-01-15", "valuation": 0}, {"lng": -98.482596, "lat": 29.613973, "category": "commercial", "permit_type": "Minor Commercial Repair Permit", "permit_number": "REP-CRP-PMT25-35400023", "project_name": "800 E SONTERRA BLVD - Level 3 & 4", "work_type": "", "address": "800 E SONTERRA BLVD, City of San Antonio, TX 78258", "date_issued": "2025-01-16", "valuation": 0}, {"lng": -98.52906, "lat": 29.59221, "category": "commercial", "permit_type": "Minor Commercial Repair Permit", "permit_number": "REP-CRP-PMT25-35400024", "project_name": "", "work_type": "", "address": "16535 HUEBNER RD, City of San Antonio, TX 78248", "date_issued": "2025-01-17", "valuation": 0}, {"lng": -98.476203, "lat": 29.615383, "category": "commercial", "permit_type": "Plumbing Medical Gas Permit", "permit_number": "COM-RML-PMT25-40000037", "project_name": "Building No: STONEOAK HOSPITAL; Unit No: CATHLAB #2", "work_type": "Existing", "address": "1139 E SONTERRA BLVD, City of San Antonio, TX 78258", "date_issued": "2025-01-19", "valuation": 0}, {"lng": -98.545177, "lat": 29.504647, "category": "commercial", "permit_type": "Minor Commercial Repair Permit", "permit_number": "REP-CRP-PMT25-35400028", "project_name": "3238 NW Loop 410", "work_type": "", "address": "3238 NW 410, City of San Antonio, TX 78213", "date_issued": "2025-01-23", "valuation": 0}, {"lng": -98.546734, "lat": 29.572711, "category": "commercial", "permit_type": "Minor Commercial Repair Permit", "permit_number": "REP-CRP-PMT25-35400029", "project_name": "KID TO KID STE 130", "work_type": "", "address": "14602 HUEBNER RD, City of San Antonio, TX 78230", "date_issued": "2025-01-23", "valuation": 0}, {"lng": -98.410991, "lat": 29.578061, "category": "commercial", "permit_type": "Comm Fence Permit", "permit_number": "COM-FEN-PMT25-40600014", "project_name": "Minor Structures Montesorri School", "work_type": "Other", "address": "4194 JUNG RD, City of San Antonio, TX 78247", "date_issued": "2025-01-24", "valuation": 41925.0}, {"lng": -98.494298, "lat": 29.450828, "category": "commercial", "permit_type": "Maintenance Permit", "permit_number": "MNT-MEP-PMT25-18200012", "project_name": "FRENCH PLACE APARTMENTS", "work_type": "", "address": "109 W FRENCH PLACE, City of San Antonio, TX 78212", "date_issued": "2025-01-24", "valuation": 0}, {"lng": -98.494298, "lat": 29.450828, "category": "commercial", "permit_type": "Maintenance Permit", "permit_number": "MNT-MEP-PMT25-18200013", "project_name": "FRENCH PLACE APARTMENTS", "work_type": "", "address": "109 W FRENCH PLACE, City of San Antonio, TX 78212", "date_issued": "2025-01-24", "valuation": 0}, {"lng": -98.466683, "lat": 29.451722, "category": "commercial", "permit_type": "Minor Commercial Repair Permit", "permit_number": "REP-CRP-PMT25-35400030", "project_name": "", "work_type": "", "address": "102 TENDICK, City of San Antonio, TX 78209", "date_issued": "2025-01-24", "valuation": 0}, {"lng": -98.60979, "lat": 29.622245, "category": "commercial", "permit_type": "Plumbing Medical Gas Permit", "permit_number": "COM-ADD-PMT25-39900006", "project_name": "Building No: N/A; Unit No: N/A", "work_type": "New", "address": "19633 IH 10 W, City of San Antonio, TX 78257", "date_issued": "2025-01-27", "valuation": 0}, {"lng": -98.578748, "lat": 29.520544, "category": "commercial", "permit_type": "Comm Sitework Permit", "permit_number": "COM-SIT-PMT25-40100039", "project_name": "School Site-NISD-Holmgreen Ctr Paving Upgrades", "work_type": "New", "address": "4646 HAMILTON WOLFE, City of San Antonio, TX 78229", "date_issued": "2025-01-27", "valuation": 48767.0}, {"lng": -98.552819, "lat": 29.437859, "category": "commercial", "permit_type": "Re-Roof Permit", "permit_number": "REP-ROF-PMT25-35200230", "project_name": "430;428;426 COMMERCIAL ROOF", "work_type": "", "address": "430 N GENERAL MCMULLEN, City of San Antonio, TX 78237", "date_issued": "2025-01-27", "valuation": 0}, {"lng": -98.469138, "lat": 29.496158, "category": "commercial", "permit_type": "Minor Commercial Repair Permit", "permit_number": "REP-CRP-PMT25-35400036", "project_name": "", "work_type": "", "address": "970 E BASSE RD, City of San Antonio, TX 78209", "date_issued": "2025-01-28", "valuation": 0}, {"lng": -98.510902, "lat": 29.401158, "category": "commercial", "permit_type": "Minor Commercial Repair Permit", "permit_number": "REP-CRP-PMT25-35400038", "project_name": "1212 Nogalitos", "work_type": "", "address": "1212 NOGALITOS ST, City of San Antonio, TX 78204", "date_issued": "2025-01-28", "valuation": 0}, {"lng": -98.483849, "lat": 29.388055, "category": "commercial", "permit_type": "Electrical General Permit", "permit_number": "MEP-ELE-PMT25-33335473", "project_name": "302 School Electrical", "work_type": "", "address": "302 SCHOOL ST, City of San Antonio, TX 78210", "date_issued": "2025-01-29", "valuation": 0}, {"lng": -98.386362, "lat": 29.507449, "category": "commercial", "permit_type": "Maintenance Permit", "permit_number": "MNT-MEP-PMT25-18200017", "project_name": "STONE CHASE APARTMENTS", "work_type": "", "address": "7914 RAY BON DR, City of San Antonio, TX 78218", "date_issued": "2025-01-29", "valuation": 0}, {"lng": -98.553642, "lat": 29.50784, "category": "commercial", "permit_type": "Minor Commercial Repair Permit", "permit_number": "REP-CRP-PMT25-35400039", "project_name": "7810 CALLAGHAN RD BLDG 3", "work_type": "", "address": "7810 CALLAGHAN RD, City of San Antonio, TX 78229", "date_issued": "2025-01-29", "valuation": 0}, {"lng": -98.526234, "lat": 29.549506, "category": "commercial", "permit_type": "Minor Commercial Repair Permit", "permit_number": "REP-CRP-PMT25-35400040", "project_name": "11843 BRAESVIEW BLDG 19 UNIT 1902", "work_type": "", "address": "11843 BRAESVIEW, City of San Antonio, TX 78213", "date_issued": "2025-01-29", "valuation": 0}, {"lng": -98.520498, "lat": 29.277922, "category": "commercial", "permit_type": "Plumbing Medical Gas Permit", "permit_number": "COM-SIT-PMT25-40100041", "project_name": "SP-Site Work-LEON CREEK WRC FACILITY IMPROVEMENTS - Administration Building", "work_type": "New", "address": "1104 MAUERMANN RD, City of San Antonio, TX 78224", "date_issued": "2025-01-30", "valuation": 0}, {"lng": -98.553642, "lat": 29.50784, "category": "commercial", "permit_type": "Minor Commercial Repair Permit", "permit_number": "REP-CRP-PMT25-35400041", "project_name": "7810 CALLAGHAN RD BLDG 1", "work_type": "", "address": "7810 CALLAGHAN RD, City of San Antonio, TX 78229", "date_issued": "2025-01-30", "valuation": 0}, {"lng": -98.553642, "lat": 29.50784, "category": "commercial", "permit_type": "Minor Commercial Repair Permit", "permit_number": "REP-CRP-PMT25-35400042", "project_name": "7810 CALLAGHAN RD BLDG 2", "work_type": "", "address": "7810 CALLAGHAN RD, City of San Antonio, TX 78229", "date_issued": "2025-01-30", "valuation": 0}, {"lng": -98.553642, "lat": 29.50784, "category": "commercial", "permit_type": "Minor Commercial Repair Permit", "permit_number": "REP-CRP-PMT25-35400043", "project_name": "7810 CALLAGHAN RD BLDG 4", "work_type": "", "address": "7810 CALLAGHAN RD, City of San Antonio, TX 78229", "date_issued": "2025-01-30", "valuation": 0}, {"lng": -98.553642, "lat": 29.50784, "category": "commercial", "permit_type": "Minor Commercial Repair Permit", "permit_number": "REP-CRP-PMT25-35400044", "project_name": "7810 CALLAGHAN-5", "work_type": "", "address": "7810 CALLAGHAN RD, City of San Antonio, TX 78229", "date_issued": "2025-01-30", "valuation": 0}, {"lng": -98.553642, "lat": 29.50784, "category": "commercial", "permit_type": "Minor Commercial Repair Permit", "permit_number": "REP-CRP-PMT25-35400045", "project_name": "7810 CALLAGHAN-BLDG 6", "work_type": "", "address": "7810 CALLAGHAN RD, City of San Antonio, TX 78229", "date_issued": "2025-01-30", "valuation": 0}, {"lng": -98.553642, "lat": 29.50784, "category": "commercial", "permit_type": "Minor Commercial Repair Permit", "permit_number": "REP-CRP-PMT25-35400046", "project_name": "7810 CALLAGHAN-BLDG 7", "work_type": "", "address": "7810 CALLAGHAN RD, City of San Antonio, TX 78229", "date_issued": "2025-01-30", "valuation": 0}, {"lng": -98.553642, "lat": 29.50784, "category": "commercial", "permit_type": "Minor Commercial Repair Permit", "permit_number": "REP-CRP-PMT25-35400047", "project_name": "7810 CALLAGHAN-BLDG 8", "work_type": "", "address": "7810 CALLAGHAN RD, City of San Antonio, TX 78229", "date_issued": "2025-01-30", "valuation": 0}, {"lng": -98.553642, "lat": 29.50784, "category": "commercial", "permit_type": "Minor Commercial Repair Permit", "permit_number": "REP-CRP-PMT25-35400048", "project_name": "7810 CALLAGHAN BLDG-9", "work_type": "", "address": "7810 CALLAGHAN RD, City of San Antonio, TX 78229", "date_issued": "2025-01-30", "valuation": 0}, {"lng": -98.553642, "lat": 29.50784, "category": "commercial", "permit_type": "Minor Commercial Repair Permit", "permit_number": "REP-CRP-PMT25-35400049", "project_name": "7810 CALLAGHAN BLDG 10", "work_type": "", "address": "7810 CALLAGHAN RD, City of San Antonio, TX 78229", "date_issued": "2025-01-30", "valuation": 0}, {"lng": -98.471528, "lat": 29.419772, "category": "commercial", "permit_type": "Electrical General Permit", "permit_number": "MEP-ELE-PMT25-33302769", "project_name": "AFF - 1602 E COMMERCE - OSCAR EASON SENIOR APARTMENTS", "work_type": "", "address": "1602 E COMMERCE ST, City of San Antonio, TX 78205", "date_issued": "2025-01-31", "valuation": 0}, {"lng": -98.39412, "lat": 29.49181, "category": "commercial", "permit_type": "Comm New Building Permit", "permit_number": "COM-BLG-PMT24-40200720", "project_name": "Building No: 2; Unit No: N/A", "work_type": "New", "address": "124 DINN DR, City of San Antonio, TX 78218", "date_issued": "2025-02-03", "valuation": 1000000.0}, {"lng": -98.57229, "lat": 29.507186, "category": "commercial", "permit_type": "Minor Commercial Repair Permit", "permit_number": "REP-CRP-PMT25-35400051", "project_name": "7700 FLOYD CURL-MCR", "work_type": "", "address": "7700 FLOYD CURL, City of San Antonio, TX 78229", "date_issued": "2025-02-03", "valuation": 0}, {"lng": -98.480323, "lat": 29.443005, "category": "commercial", "permit_type": "Minor Commercial Repair Permit", "permit_number": "REP-CRP-PMT25-35400052", "project_name": "312 Pearl Pkwy", "work_type": "", "address": "312 PEARL PKWY, City of San Antonio, TX 78215", "date_issued": "2025-02-03", "valuation": 0}, {"lng": -98.487028, "lat": 29.616973, "category": "commercial", "permit_type": "Minor Commercial Repair Permit", "permit_number": "REP-CRP-PMT25-35400053", "project_name": "401 E Sonterra Suite 250", "work_type": "", "address": "401 E SONTERRA BLVD, City of San Antonio, TX 78258", "date_issued": "2025-02-03", "valuation": 0}, {"lng": -98.481249, "lat": 29.495036, "category": "commercial", "permit_type": "Minor Commercial Repair Permit", "permit_number": "REP-CRP-PMT25-35400054", "project_name": "255 E Basse Bldg 5 Suite 500", "work_type": "", "address": "255 E BASSE RD, City of San Antonio, TX 78209", "date_issued": "2025-02-03", "valuation": 0}, {"lng": -98.471844, "lat": 29.526619, "category": "commercial", "permit_type": "Plumbing Medical Gas Permit", "permit_number": "COM-FND-PMT25-40300002", "project_name": "Building No: 1", "work_type": "New", "address": "9800 AIRPORT BLVD, City of San Antonio, TX 78216", "date_issued": "2025-02-04", "valuation": 0}, {"lng": -98.460527, "lat": 29.378406, "category": "commercial", "permit_type": "Minor Commercial Repair Permit", "permit_number": "REP-CRP-PMT25-35400055", "project_name": "4130 S NEW BRAUNFELS AVE - Suite 103", "work_type": "", "address": "4130 S NEW BRAUNFELS AVE, City of San Antonio, TX 78223", "date_issued": "2025-02-04", "valuation": 0}, {"lng": -98.516513, "lat": 29.336035, "category": "commercial", "permit_type": "Garage Sale", "permit_number": "BLDG-GS-PMT-13814221", "project_name": "3731 COMMERCIAL AVE", "work_type": "", "address": "3731 COMMERCIAL AVE, City of San Antonio, TX 78221", "date_issued": "2025-02-05", "valuation": 0}, {"lng": -98.5538, "lat": 29.502881, "category": "commercial", "permit_type": "Comm New Building Permit", "permit_number": "COM-BLG-PMT22-40200517", "project_name": "AFF - B#16 - 3500 MAGIC DR", "work_type": "New", "address": "3500 MAGIC DR, City of San Antonio, TX 78229", "date_issued": "2025-02-05", "valuation": 21631000.0}, {"lng": -98.565931, "lat": 29.514257, "category": "commercial", "permit_type": "Plumbing General Permit", "permit_number": "MEP-PLM-PMT25-34303255", "project_name": "4212 Medical Dr", "work_type": "", "address": "4212 MEDICAL DR, City of San Antonio, TX 78229", "date_issued": "2025-02-05", "valuation": 0}, {"lng": -98.485158, "lat": 29.424173, "category": "commercial", "permit_type": "Minor Commercial Repair Permit", "permit_number": "REP-CRP-PMT25-35400057", "project_name": "849 E Commerce      Rivel level", "work_type": "", "address": "849 E COMMERCE ST, City of San Antonio, TX 78205", "date_issued": "2025-02-05", "valuation": 0}, {"lng": -98.485158, "lat": 29.424173, "category": "commercial", "permit_type": "Minor Commercial Repair Permit", "permit_number": "REP-CRP-PMT25-35400058", "project_name": "849 E Commerce St   !st Floor", "work_type": "", "address": "849 E COMMERCE ST, City of San Antonio, TX 78205", "date_issued": "2025-02-05", "valuation": 0}, {"lng": -98.516359, "lat": 29.364619, "category": "commercial", "permit_type": "Garage Sale", "permit_number": "BLDG-GS-PMT-13814229", "project_name": "1528 COMMERCIAL AVE", "work_type": "", "address": "1528 COMMERCIAL AVE, City of San Antonio, TX 78221", "date_issued": "2025-02-06", "valuation": 0}, {"lng": -98.609104, "lat": 29.615272, "category": "commercial", "permit_type": "Comm New Building Permit", "permit_number": "COM-BLG-PMT25-40200018", "project_name": "Bella Vida at La Cantera - Memory Care Building", "work_type": "New", "address": "19115 IH 10 W, City of San Antonio, TX 78257", "date_issued": "2025-02-06", "valuation": 2934485.0}, {"lng": -98.57229, "lat": 29.507186, "category": "commercial", "permit_type": "Plumbing Medical Gas Permit", "permit_number": "MEP-MED-PMT25-34503350", "project_name": "6th floor Medgas remodel", "work_type": "", "address": "7700 FLOYD CURL, City of San Antonio, TX 78229", "date_issued": "2025-02-06", "valuation": 0}, {"lng": -98.506327, "lat": 29.511221, "category": "commercial", "permit_type": "Plumbing General Permit", "permit_number": "MEP-PLM-PMT25-34303303", "project_name": "AFF - 6014 BLANCO RD  * LEASING OFFICE/BOILER ROOM", "work_type": "", "address": "6014 BLANCO RD, City of San Antonio, TX 78216", "date_issued": "2025-02-06", "valuation": 0}, {"lng": -98.570624, "lat": 29.488496, "category": "commercial", "permit_type": "Minor Commercial Repair Permit", "permit_number": "REP-CRP-PMT25-35400059", "project_name": "4400 NW 410 - Suite 400 / Level 4", "work_type": "", "address": "4400 NW 410, City of San Antonio, TX 78229", "date_issued": "2025-02-06", "valuation": 0}, {"lng": -98.570624, "lat": 29.488496, "category": "commercial", "permit_type": "Minor Commercial Repair Permit", "permit_number": "REP-CRP-PMT25-35400060", "project_name": "4400 NW 410 - Suite 350 / Level 3", "work_type": "", "address": "4400 NW 410, City of San Antonio, TX 78229", "date_issued": "2025-02-07", "valuation": 0}, {"lng": -98.486376, "lat": 29.425002, "category": "commercial", "permit_type": "Minor Commercial Repair Permit", "permit_number": "REP-CRP-PMT25-35400061", "project_name": "", "work_type": "", "address": "214 ALAMO PLAZA, City of San Antonio, TX 78205", "date_issued": "2025-02-07", "valuation": 0}, {"lng": -98.562401, "lat": 29.511579, "category": "commercial", "permit_type": "Minor Commercial Repair Permit", "permit_number": "REP-CRP-PMT25-35400062", "project_name": "8000 Donore Place unit 69", "work_type": "", "address": "8000 DONORE PLACE, City of San Antonio, TX 78229", "date_issued": "2025-02-10", "valuation": 0}, {"lng": -98.404093, "lat": 29.535915, "category": "commercial", "permit_type": "Comm Sitework Permit", "permit_number": "COM-SIT-PMT25-40100059", "project_name": "SPC-Special Project-Morgan's Restaurant", "work_type": "New", "address": "18235 WURZBACH, City of San Antonio, TX 78217", "date_issued": "2025-02-11", "valuation": 1029248.0}, {"lng": -98.405376, "lat": 29.536125, "category": "commercial", "permit_type": "Comm Sitework Permit", "permit_number": "COM-SIT-PMT25-40100060", "project_name": "SPC-Special Project-Morgan's Hotel", "work_type": "New", "address": "18211 WURZBACH, City of San Antonio, TX 78217", "date_issued": "2025-02-11", "valuation": 1745006.0}, {"lng": -98.440066, "lat": 29.532163, "category": "commercial", "permit_type": "Electrical General Permit", "permit_number": "MEP-ELE-PMT25-33303750", "project_name": "Office room", "work_type": "", "address": "10023 ASTRONAUT, City of San Antonio, TX 78217", "date_issued": "2025-02-11", "valuation": 0}, {"lng": -98.492292, "lat": 29.433867, "category": "commercial", "permit_type": "Mechanical Permit", "permit_number": "MEP-MEC-PMT25-33903407", "project_name": "Baptist Medical Center Generator Exhaust", "work_type": "", "address": "111 DALLAS ST, City of San Antonio, TX 78205", "date_issued": "2025-02-11", "valuation": 0}, {"lng": -98.648988, "lat": 29.400627, "category": "commercial", "permit_type": "Minor Commercial Repair Permit", "permit_number": "REP-CRP-PMT25-35400063", "project_name": "2810 SW 410", "work_type": "", "address": "2810 SW 410, City of San Antonio, TX 78227", "date_issued": "2025-02-11", "valuation": 0}, {"lng": -98.475078, "lat": 29.446369, "category": "commercial", "permit_type": "Minor Commercial Repair Permit", "permit_number": "REP-CRP-PMT25-35400064", "project_name": "2202 Broadway Bldg 3 Minor Commercial Repair", "work_type": "", "address": "2202 BROADWAY, City of San Antonio, TX 78215", "date_issued": "2025-02-11", "valuation": 0}, {"lng": -98.574717, "lat": 29.509898, "category": "commercial", "permit_type": "On Premise Sign", "permit_number": "SIG-OPS-PMT25-21500203", "project_name": "4507 MEDICAL DR", "work_type": "", "address": "4507 MEDICAL DR, City of San Antonio, TX 78229", "date_issued": "2025-02-11", "valuation": 0}, {"lng": -98.468292, "lat": 29.425212, "category": "commercial", "permit_type": "Electrical General Permit", "permit_number": "MEP-ELE-PMT25-33303779", "project_name": "Miscellaneous Repairs - Herman Restaurant", "work_type": "", "address": "1841 E HOUSTON ST, City of San Antonio, TX 78202", "date_issued": "2025-02-12", "valuation": 0}, {"lng": -98.408477, "lat": 29.440458, "category": "commercial", "permit_type": "Mechanical Permit", "permit_number": "MEP-MEC-PMT25-33903787", "project_name": "SPC Warehouse Showroom HVAC", "work_type": "", "address": "4410 DIVIDEND DR, City of San Antonio, TX 78219", "date_issued": "2025-02-12", "valuation": 0}, {"lng": -98.489015, "lat": 29.423635, "category": "commercial", "permit_type": "Minor Commercial Repair Permit", "permit_number": "REP-CRP-PMT25-35400065", "project_name": "", "work_type": "", "address": "210 N PRESA ST, City of San Antonio, TX 78205", "date_issued": "2025-02-12", "valuation": 0}, {"lng": -98.493964, "lat": 29.427856, "category": "commercial", "permit_type": "Minor Commercial Repair Permit", "permit_number": "REP-CRP-PMT25-35400066", "project_name": "315 N Main - Minor Commercial", "work_type": "", "address": "315 N MAIN AVE, City of San Antonio, TX 78205", "date_issued": "2025-02-12", "valuation": 0}, {"lng": -98.512238, "lat": 29.545373, "category": "commercial", "permit_type": "Minor Commercial Repair Permit", "permit_number": "REP-CRP-PMT25-35400067", "project_name": "1031 PATRICIA DR - Suite 106", "work_type": "", "address": "1031 PATRICIA DR, City of San Antonio, TX 78213", "date_issued": "2025-02-13", "valuation": 0}, {"lng": -98.544313, "lat": 29.569599, "category": "commercial", "permit_type": "Electrical General Permit", "permit_number": "MEP-ELE-PMT25-33303963", "project_name": "Torah School Bldg 2", "work_type": "", "address": "3003 SHOLOM DR, City of San Antonio, TX 78230", "date_issued": "2025-02-14", "valuation": 0}, {"lng": -98.628824, "lat": 29.404826, "category": "commercial", "permit_type": "Re-Roof Permit", "permit_number": "REP-ROF-PMT25-35200428", "project_name": "6818 W Military Dr Re-Roof Commercial", "work_type": "", "address": "6818 W MILITARY DR, City of San Antonio, TX 78227", "date_issued": "2025-02-14", "valuation": 0}, {"lng": -98.544313, "lat": 29.569599, "category": "commercial", "permit_type": "Electrical TOPS Permit", "permit_number": "MEP-TOP-PMT25-33604211", "project_name": "Torah School Bldg 2", "work_type": "", "address": "3003 SHOLOM DR, City of San Antonio, TX 78230", "date_issued": "2025-02-17", "valuation": 0}, {"lng": -98.460527, "lat": 29.378406, "category": "commercial", "permit_type": "Electrical General Permit", "permit_number": "MEP-ELE-PMT25-33304303", "project_name": "General Electric Suite 103 - Commercial", "work_type": "", "address": "4130 S NEW BRAUNFELS AVE, City of San Antonio, TX 78223", "date_issued": "2025-02-18", "valuation": 0}, {"lng": -98.492324, "lat": 29.610392, "category": "commercial", "permit_type": "Minor Commercial Repair Permit", "permit_number": "REP-CRP-PMT25-35400068", "project_name": "KATERINA, LLC", "work_type": "", "address": "18740 STONE OAK PKWY, City of San Antonio, TX 78258", "date_issued": "2025-02-18", "valuation": 0}, {"lng": -98.493561, "lat": 29.627424, "category": "commercial", "permit_type": "Minor Commercial Repair Permit", "permit_number": "REP-CRP-PMT25-35400069", "project_name": "Suite 105", "work_type": "", "address": "20323 HUEBNER RD, City of San Antonio, TX 78258", "date_issued": "2025-02-18", "valuation": 0}, {"lng": -98.511044, "lat": 29.466216, "category": "commercial", "permit_type": "Minor Commercial Repair Permit", "permit_number": "REP-CRP-PMT25-35400070", "project_name": "1034 HILDEBRAND AVE - Minor Commercial Repair", "work_type": "", "address": "1034 W HILDEBRAND AVE, City of San Antonio, TX 78201", "date_issued": "2025-02-18", "valuation": 0}, {"lng": -98.497871, "lat": 29.359418, "category": "commercial", "permit_type": "Minor Commercial Repair Permit", "permit_number": "REP-CRP-PMT25-35400071", "project_name": "MISSION VILLAS SA LLC BLDG 3", "work_type": "", "address": "247 W DICKSON AVE, City of San Antonio, TX 78214", "date_issued": "2025-02-18", "valuation": 0}, {"lng": -98.497871, "lat": 29.359418, "category": "commercial", "permit_type": "Minor Commercial Repair Permit", "permit_number": "REP-CRP-PMT25-35400072", "project_name": "MISSION VILLAS SA LLC BLDG 4", "work_type": "", "address": "247 W DICKSON AVE, City of San Antonio, TX 78214", "date_issued": "2025-02-18", "valuation": 0}, {"lng": -98.511044, "lat": 29.466216, "category": "commercial", "permit_type": "Foundation Repair Permit", "permit_number": "REP-FND-PMT25-35100402", "project_name": "1034 W Hildebrand Founadtion *Commercial*", "work_type": "", "address": "1034 W HILDEBRAND AVE, City of San Antonio, TX 78201", "date_issued": "2025-02-18", "valuation": 0}, {"lng": -98.462966, "lat": 29.613504, "category": "commercial", "permit_type": "Comm Street Improvement Permit", "permit_number": "COM-STR-PMT25-41300009", "project_name": "SIP - Site Work SST Sonterra Mast Arm Advisory School Flashers", "work_type": "New", "address": "1819 E SONTERRA BLVD, City of San Antonio, TX 78259", "date_issued": "2025-02-19", "valuation": 0}, {"lng": -98.524488, "lat": 29.479481, "category": "commercial", "permit_type": "Comm New Building Permit", "permit_number": "COM-BLG-PMT25-40200051", "project_name": "Building No: 1; Unit No: 1", "work_type": "New", "address": "5422 IH 10 W, City of San Antonio, TX 78201", "date_issued": "2025-02-20", "valuation": 2788039.0}, {"lng": -98.412546, "lat": 29.514707, "category": "commercial", "permit_type": "Maintenance Permit", "permit_number": "MNT-MEP-PMT25-18200031", "project_name": "OAKSTONE APARTMENTS", "work_type": "", "address": "2600 NE 410, City of San Antonio, TX 78217", "date_issued": "2025-02-20", "valuation": 0}, {"lng": -98.412546, "lat": 29.514707, "category": "commercial", "permit_type": "Maintenance Permit", "permit_number": "MNT-MEP-PMT25-18200032", "project_name": "OAKSTONE APARTMENTS", "work_type": "", "address": "2600 NE 410, City of San Antonio, TX 78217", "date_issued": "2025-02-20", "valuation": 0}, {"lng": -98.375777, "lat": 29.547864, "category": "commercial", "permit_type": "Minor Commercial Repair Permit", "permit_number": "REP-CRP-PMT25-35400073", "project_name": "11911 CROSSWINDS WAY Suite 309", "work_type": "", "address": "11911 CROSSWINDS WAY, City of San Antonio, TX 78233", "date_issued": "2025-02-20", "valuation": 0}, {"lng": -98.563141, "lat": 29.547141, "category": "commercial", "permit_type": "Minor Commercial Repair Permit", "permit_number": "REP-CRP-PMT25-35400074", "project_name": "11444 VANCE JACKSON - Bldg.19", "work_type": "", "address": "11444 VANCE JACKSON, City of San Antonio, TX 78230", "date_issued": "2025-02-20", "valuation": 0}, {"lng": -98.563141, "lat": 29.547141, "category": "commercial", "permit_type": "Minor Commercial Repair Permit", "permit_number": "REP-CRP-PMT25-35400076", "project_name": "11444 VANCE JACKSON - Bldg.21", "work_type": "", "address": "11444 VANCE JACKSON, City of San Antonio, TX 78230", "date_issued": "2025-02-20", "valuation": 0}, {"lng": -98.485158, "lat": 29.424173, "category": "commercial", "permit_type": "Minor Commercial Repair Permit", "permit_number": "REP-CRP-PMT25-35400077", "project_name": "849 E COMMERCE suite 849", "work_type": "", "address": "849 E COMMERCE ST, City of San Antonio, TX 78205", "date_issued": "2025-02-20", "valuation": 0}, {"lng": -98.426169, "lat": 29.517324, "category": "commercial", "permit_type": "Mechanical Permit", "permit_number": "MEP-MEC-PMT25-33904541", "project_name": "MERIDA  APARTMENTS BLDG 20 UNIT F22", "work_type": "", "address": "2167 NE 410, City of San Antonio, TX 78217", "date_issued": "2025-02-21", "valuation": 0}, {"lng": -98.426169, "lat": 29.517324, "category": "commercial", "permit_type": "Mechanical Permit", "permit_number": "MEP-MEC-PMT25-33904543", "project_name": "MERIDA  APARTMENTS BLDG 20 UNIT F24", "work_type": "", "address": "2167 NE 410, City of San Antonio, TX 78217", "date_issued": "2025-02-21", "valuation": 0}, {"lng": -98.426169, "lat": 29.517324, "category": "commercial", "permit_type": "Mechanical Permit", "permit_number": "MEP-MEC-PMT25-33904544", "project_name": "MERIDA  APARTMENTS BLDG 20 UNIT F25", "work_type": "", "address": "2167 NE 410, City of San Antonio, TX 78217", "date_issued": "2025-02-21", "valuation": 0}, {"lng": -98.426169, "lat": 29.517324, "category": "commercial", "permit_type": "Mechanical Permit", "permit_number": "MEP-MEC-PMT25-33904545", "project_name": "MERIDA  APARTMENTS BLDG 20 UNIT F29", "work_type": "", "address": "2167 NE 410, City of San Antonio, TX 78217", "date_issued": "2025-02-21", "valuation": 0}, {"lng": -98.426169, "lat": 29.517324, "category": "commercial", "permit_type": "Mechanical Permit", "permit_number": "MEP-MEC-PMT25-33904578", "project_name": "MERIDA APARTMENTS BLDG 15 UNIT G3", "work_type": "", "address": "2167 NE 410, City of San Antonio, TX 78217", "date_issued": "2025-02-21", "valuation": 0}, {"lng": -98.426169, "lat": 29.517324, "category": "commercial", "permit_type": "Mechanical Permit", "permit_number": "MEP-MEC-PMT25-33904579", "project_name": "MERIDA APARTMENTS BLDG 15 UNIT G13", "work_type": "", "address": "2167 NE 410, City of San Antonio, TX 78217", "date_issued": "2025-02-21", "valuation": 0}, {"lng": -98.426169, "lat": 29.517324, "category": "commercial", "permit_type": "Mechanical Permit", "permit_number": "MEP-MEC-PMT25-33904580", "project_name": "MERIDA APARTMENTS BLDG 17 UNIT G17", "work_type": "", "address": "2167 NE 410, City of San Antonio, TX 78217", "date_issued": "2025-02-21", "valuation": 0}, {"lng": -98.426169, "lat": 29.517324, "category": "commercial", "permit_type": "Mechanical Permit", "permit_number": "MEP-MEC-PMT25-33904581", "project_name": "MERIDA APARTMENTS BLDG 17 UNIT G18", "work_type": "", "address": "2167 NE 410, City of San Antonio, TX 78217", "date_issued": "2025-02-21", "valuation": 0}, {"lng": -98.426169, "lat": 29.517324, "category": "commercial", "permit_type": "Mechanical Permit", "permit_number": "MEP-MEC-PMT25-33904582", "project_name": "MERIDA APARTMENTS BLDG 17 UNIT 25", "work_type": "", "address": "2167 NE 410, City of San Antonio, TX 78217", "date_issued": "2025-02-21", "valuation": 0}, {"lng": -98.426169, "lat": 29.517324, "category": "commercial", "permit_type": "Mechanical Permit", "permit_number": "MEP-MEC-PMT25-33904583", "project_name": "MERIDA APARTMENTS BLDG 17 UNIT G29", "work_type": "", "address": "2167 NE 410, City of San Antonio, TX 78217", "date_issued": "2025-02-21", "valuation": 0}, {"lng": -98.426169, "lat": 29.517324, "category": "commercial", "permit_type": "Mechanical Permit", "permit_number": "MEP-MEC-PMT25-33904601", "project_name": "MERIDA  APARTMENTS BLDG 19 UNIT H4", "work_type": "", "address": "2167 NE 410, City of San Antonio, TX 78217", "date_issued": "2025-02-21", "valuation": 0}, {"lng": -98.426169, "lat": 29.517324, "category": "commercial", "permit_type": "Mechanical Permit", "permit_number": "MEP-MEC-PMT25-33904603", "project_name": "MERIDA  APARTMENTS BLDG 19 UNIT H7", "work_type": "", "address": "2167 NE 410, City of San Antonio, TX 78217", "date_issued": "2025-02-21", "valuation": 0}, {"lng": -98.426169, "lat": 29.517324, "category": "commercial", "permit_type": "Mechanical Permit", "permit_number": "MEP-MEC-PMT25-33904604", "project_name": "MERIDA  APARTMENTS BLDG 19 UNIT H10", "work_type": "", "address": "2167 NE 410, City of San Antonio, TX 78217", "date_issued": "2025-02-21", "valuation": 0}, {"lng": -98.426169, "lat": 29.517324, "category": "commercial", "permit_type": "Mechanical Permit", "permit_number": "MEP-MEC-PMT25-33904605", "project_name": "MERIDA  APARTMENTS BLDG 19 UNIT H21", "work_type": "", "address": "2167 NE 410, City of San Antonio, TX 78217", "date_issued": "2025-02-21", "valuation": 0}, {"lng": -98.426169, "lat": 29.517324, "category": "commercial", "permit_type": "Mechanical Permit", "permit_number": "MEP-MEC-PMT25-33904607", "project_name": "MERIDA APARTMENTS BLDG 19 UNIT H17", "work_type": "", "address": "2167 NE 410, City of San Antonio, TX 78217", "date_issued": "2025-02-21", "valuation": 0}, {"lng": -98.426169, "lat": 29.517324, "category": "commercial", "permit_type": "Mechanical Permit", "permit_number": "MEP-MEC-PMT25-33904608", "project_name": "MERIDA APARTMENTS BLDG 19 UNIT H18", "work_type": "", "address": "2167 NE 410, City of San Antonio, TX 78217", "date_issued": "2025-02-21", "valuation": 0}, {"lng": -98.40723, "lat": 29.482837, "category": "commercial", "permit_type": "Plumbing General Permit", "permit_number": "MEP-PLM-PMT25-34304714", "project_name": "General Plumbing Commercial", "work_type": "", "address": "6007 RITTIMAN PLAZA, City of San Antonio, TX 78218", "date_issued": "2025-02-21", "valuation": 0}, {"lng": -98.498983, "lat": 29.408708, "category": "commercial", "permit_type": "Maintenance Permit", "permit_number": "MNT-MEP-PMT25-18200033", "project_name": "Art House Apartments", "work_type": "", "address": "215 E CEVALLOS, City of San Antonio, TX 78204", "date_issued": "2025-02-21", "valuation": 0}, {"lng": -98.498983, "lat": 29.408708, "category": "commercial", "permit_type": "Maintenance Permit", "permit_number": "MNT-MEP-PMT25-18200034", "project_name": "Art House Apartments", "work_type": "", "address": "215 E CEVALLOS, City of San Antonio, TX 78204", "date_issued": "2025-02-21", "valuation": 0}, {"lng": -98.657511, "lat": 29.4403, "category": "commercial", "permit_type": "Minor Commercial Repair Permit", "permit_number": "REP-CRP-PMT25-35400078", "project_name": "9106 INGRAM RD - Bldg 2", "work_type": "", "address": "9106 INGRAM RD, City of San Antonio, TX 78245", "date_issued": "2025-02-21", "valuation": 0}, {"lng": -98.640783, "lat": 29.524961, "category": "commercial", "permit_type": "Minor Commercial Repair Permit", "permit_number": "REP-CRP-PMT25-35400079", "project_name": "", "work_type": "", "address": "8739 BANDERA RD, City of San Antonio, TX 78250", "date_issued": "2025-02-21", "valuation": 0}, {"lng": -98.587838, "lat": 29.293125, "category": "commercial", "permit_type": "Comm Sitework Permit", "permit_number": "COM-SIT-PMT25-40100074", "project_name": "School Site-SWISD-SW Legacy HS- Ph#1- Sitework", "work_type": "New", "address": "4495 VERANO, City of San Antonio, TX 78073", "date_issued": "2025-02-24", "valuation": 700000.0}, {"lng": -98.480353, "lat": 29.504851, "category": "commercial", "permit_type": "Minor Commercial Repair Permit", "permit_number": "REP-CRP-PMT25-35400081", "project_name": "200 CONCORD PLAZA DR - Suite 550", "work_type": "", "address": "200 CONCORD PLAZA DR, City of San Antonio, TX 78216", "date_issued": "2025-02-24", "valuation": 0}, {"lng": -98.434407, "lat": 29.516667, "category": "commercial", "permit_type": "Minor Commercial Repair Permit", "permit_number": "REP-CRP-PMT25-35400082", "project_name": "", "work_type": "", "address": "1803 NE 410, City of San Antonio, TX 78217", "date_issued": "2025-02-24", "valuation": 0}, {"lng": -98.517585, "lat": 29.366698, "category": "commercial", "permit_type": "On Premise Sign", "permit_number": "SIG-OPS-PMT25-21500287", "project_name": "1419 COMMERCIAL AVE", "work_type": "", "address": "1419 COMMERCIAL AVE, City of San Antonio, TX 78221", "date_issued": "2025-02-24", "valuation": 0}, {"lng": -98.436163, "lat": 29.346173, "category": "commercial", "permit_type": "Electrical General Permit", "permit_number": "MEP-ELE-PMT25-33304935", "project_name": "DR Horton Office", "work_type": "", "address": "7515 INNER CIRCLE DRIVE, City of San Antonio, TX 78235", "date_issued": "2025-02-25", "valuation": 0}, {"lng": -98.554669, "lat": 29.42973, "category": "commercial", "permit_type": "Minor Commercial Repair Permit", "permit_number": "REP-CRP-PMT25-35400084", "project_name": "", "work_type": "", "address": "130 S SAN AUGUSTINE, City of San Antonio, TX 78237", "date_issued": "2025-02-25", "valuation": 0}, {"lng": -98.460327, "lat": 29.520443, "category": "commercial", "permit_type": "Minor Commercial Repair Permit", "permit_number": "REP-CRP-PMT25-35400085", "project_name": "8800 BROADWAY #250", "work_type": "", "address": "8800 BROADWAY, City of San Antonio, TX 78217", "date_issued": "2025-02-25", "valuation": 0}, {"lng": -98.511127, "lat": 29.548819, "category": "commercial", "permit_type": "Minor Commercial Repair Permit", "permit_number": "REP-CRP-PMT25-35400086", "project_name": "", "work_type": "", "address": "11811 BLANCO RD, City of San Antonio, TX 78216", "date_issued": "2025-02-26", "valuation": 0}, {"lng": -98.665502, "lat": 29.549575, "category": "commercial", "permit_type": "Minor Commercial Repair Permit", "permit_number": "REP-CRP-PMT25-35400087", "project_name": "11619 Bandera Suite 106", "work_type": "", "address": "11619 BANDERA RD, City of San Antonio, TX 78254", "date_issued": "2025-02-26", "valuation": 0}, {"lng": -98.36882, "lat": 29.548853, "category": "commercial", "permit_type": "Minor Commercial Repair Permit", "permit_number": "REP-CRP-PMT25-35400088", "project_name": "11711 N IH 35 - Suite 140", "work_type": "", "address": "11711 N IH 35, City of San Antonio, TX 78233", "date_issued": "2025-02-26", "valuation": 0}, {"lng": -98.451121, "lat": 29.657989, "category": "commercial", "permit_type": "Tree Permit", "permit_number": "TRE-PMT-25-38900167", "project_name": "CIP SAWS Stones Crossing Apartments_Offsite Sewer", "work_type": "", "address": "23219 N US HWY 281, City of San Antonio, TX 78258", "date_issued": "2025-02-26", "valuation": 0}, {"lng": -98.409815, "lat": 29.521433, "category": "commercial", "permit_type": "Minor Commercial Repair Permit", "permit_number": "REP-CRP-PMT25-35400089", "project_name": "4222 GATECREST ST - Suite 102", "work_type": "", "address": "4222 GATECREST ST, City of San Antonio, TX 78217", "date_issued": "2025-02-27", "valuation": 0}, {"lng": -98.489166, "lat": 29.425213, "category": "commercial", "permit_type": "Minor Commercial Repair Permit", "permit_number": "REP-CRP-PMT25-35400090", "project_name": "", "work_type": "", "address": "111 W CROCKETT ST, City of San Antonio, TX 78205", "date_issued": "2025-02-28", "valuation": 0}, {"lng": -98.497871, "lat": 29.359418, "category": "commercial", "permit_type": "Minor Commercial Repair Permit", "permit_number": "REP-CRP-PMT25-35400091", "project_name": "MISSION VILLAS SA LLC BLDG 10", "work_type": "", "address": "247 W DICKSON AVE, City of San Antonio, TX 78214", "date_issued": "2025-02-28", "valuation": 0}, {"lng": -98.456738, "lat": 29.455024, "category": "commercial", "permit_type": "Minor Commercial Repair Permit", "permit_number": "REP-CRP-PMT25-35400092", "project_name": "", "work_type": "", "address": "322 LUCAS, City of San Antonio, TX 78209", "date_issued": "2025-03-03", "valuation": 0}, {"lng": -98.474982, "lat": 29.578689, "category": "commercial", "permit_type": "Minor Commercial Repair Permit", "permit_number": "REP-CRP-PMT25-35400093", "project_name": "15062 N US Hwy 281", "work_type": "", "address": "15062 N US HWY 281, City of San Antonio, TX 78232", "date_issued": "2025-03-03", "valuation": 0}, {"lng": -98.496324, "lat": 29.486787, "category": "commercial", "permit_type": "Minor Commercial Repair Permit", "permit_number": "REP-CRP-PMT25-35400094", "project_name": "1516 W CONTOUR DR", "work_type": "", "address": "1516 W CONTOUR DR, City of San Antonio, TX 78212", "date_issued": "2025-03-03", "valuation": 0}, {"lng": -98.594105, "lat": 29.328521, "category": "commercial", "permit_type": "Minor Commercial Repair Permit", "permit_number": "REP-CRP-PMT25-35400095", "project_name": "", "work_type": "", "address": "9596 NEW LAREDO HWY, City of San Antonio, TX 78211", "date_issued": "2025-03-04", "valuation": 0}, {"lng": -98.50246, "lat": 29.337065, "category": "commercial", "permit_type": "Comm New Building Permit", "permit_number": "COM-BLG-PMT25-40200059", "project_name": "Building No: 1; Unit No: 1", "work_type": "New", "address": "3902 PLEASANTON RD, City of San Antonio, TX 78221", "date_issued": "2025-03-05", "valuation": 825000.0}, {"lng": -98.673779, "lat": 29.451779, "category": "commercial", "permit_type": "Comm New Building Permit", "permit_number": "COM-BLG-PMT25-40200067", "project_name": "SPC HWOR NEW RESTRM BLDG 2025 Bldg 15", "work_type": "New", "address": "9700 W MILITARY DR, City of San Antonio, TX 78251", "date_issued": "2025-03-05", "valuation": 85000.0}, {"lng": -98.734521, "lat": 29.506053, "category": "commercial", "permit_type": "Comm New Building Permit", "permit_number": "COM-BLG-PMT25-40200068", "project_name": "Building No: 2; Unit No: N/A", "work_type": "New", "address": "12131 CULEBRA RD, City of San Antonio, TX 78253", "date_issued": "2025-03-06", "valuation": 45000.0}, {"lng": -98.474982, "lat": 29.578689, "category": "commercial", "permit_type": "Plumbing General Permit", "permit_number": "MEP-PLM-PMT25-34306170", "project_name": "commercial", "work_type": "", "address": "15062 N US HWY 281, City of San Antonio, TX 78232", "date_issued": "2025-03-06", "valuation": 0}, {"lng": -98.43705, "lat": 29.399752, "category": "commercial", "permit_type": "Minor Commercial Repair Permit", "permit_number": "REP-CRP-PMT25-35400096", "project_name": "1419 Amanda", "work_type": "", "address": "1419 AMANDA ST, City of San Antonio, TX 78210", "date_issued": "2025-03-06", "valuation": 0}, {"lng": -98.589214, "lat": 29.502777, "category": "commercial", "permit_type": "Minor Commercial Repair Permit", "permit_number": "REP-CRP-PMT25-35400097", "project_name": "7207 SNOWDEN RD  #2 B", "work_type": "", "address": "7207 SNOWDEN RD, City of San Antonio, TX 78240", "date_issued": "2025-03-06", "valuation": 0}, {"lng": -98.491407, "lat": 29.418656, "category": "commercial", "permit_type": "Maintenance Permit", "permit_number": "MNT-MEP-PMT25-18200042", "project_name": "AGAVE APARTMENTS", "work_type": "", "address": "633 S ST MARYS ST, City of San Antonio, TX 78205", "date_issued": "2025-03-07", "valuation": 0}, {"lng": -98.403778, "lat": 29.395982, "category": "commercial", "permit_type": "Minor Commercial Repair Permit", "permit_number": "REP-CRP-PMT25-35400098", "project_name": "RONALD BETHANY", "work_type": "", "address": "1970 S WW WHITE RD, City of San Antonio, TX 78222", "date_issued": "2025-03-07", "valuation": 0}, {"lng": -98.493594, "lat": 29.440109, "category": "commercial", "permit_type": "Minor Commercial Repair Permit", "permit_number": "REP-CRP-PMT25-35400099", "project_name": "", "work_type": "", "address": "1222 N MAIN AVE, City of San Antonio, TX 78212", "date_issued": "2025-03-07", "valuation": 0}, {"lng": -98.473003, "lat": 29.451287, "category": "commercial", "permit_type": "Minor Commercial Repair Permit", "permit_number": "REP-CRP-PMT25-35400100", "project_name": "2632 BROADWAY DEVELOPMENTS", "work_type": "", "address": "2632 BROADWAY, City of San Antonio, TX 78215", "date_issued": "2025-03-07", "valuation": 0}, {"lng": -98.524082, "lat": 29.46222, "category": "commercial", "permit_type": "Minor Commercial Repair Permit", "permit_number": "REP-CRP-PMT25-35400101", "project_name": "CITY OF SAN ANTONIO BUS SHELTER", "work_type": "", "address": "102 DONALDSON AVE, City of San Antonio, TX 78201", "date_issued": "2025-03-07", "valuation": 0}, {"lng": -98.365878, "lat": 29.54652, "category": "commercial", "permit_type": "Minor Commercial Repair Permit", "permit_number": "REP-CRP-PMT25-35400102", "project_name": "11726 IH 35N #102-2", "work_type": "", "address": "11726 N IH 35, City of San Antonio, TX 78233", "date_issued": "2025-03-07", "valuation": 0}, {"lng": -98.401429, "lat": 29.488377, "category": "commercial", "permit_type": "Minor Commercial Repair Permit", "permit_number": "REP-CRP-PMT25-35400103", "project_name": "6402 N IH 35-MBR", "work_type": "", "address": "6402 N IH 35, City of San Antonio, TX 78218", "date_issued": "2025-03-07", "valuation": 0}, {"lng": -98.478719, "lat": 29.422277, "category": "commercial", "permit_type": "Minor Commercial Repair Permit", "permit_number": "REP-CRP-PMT25-35400104", "project_name": "230 N Center - Commercial Minor Repair", "work_type": "", "address": "230 CENTER ST, City of San Antonio, TX 78205", "date_issued": "2025-03-10", "valuation": 0}, {"lng": -98.501185, "lat": 29.466232, "category": "commercial", "permit_type": "Minor Commercial Repair Permit", "permit_number": "REP-CRP-PMT25-35400105", "project_name": "448 HILDEBRAND-108", "work_type": "", "address": "448 W HILDEBRAND AVE, City of San Antonio, TX 78212", "date_issued": "2025-03-10", "valuation": 0}, {"lng": -98.501185, "lat": 29.466232, "category": "commercial", "permit_type": "Minor Commercial Repair Permit", "permit_number": "REP-CRP-PMT25-35400106", "project_name": "448 HILDEBRAND-110", "work_type": "", "address": "448 W HILDEBRAND AVE, City of San Antonio, TX 78212", "date_issued": "2025-03-10", "valuation": 0}, {"lng": -98.501185, "lat": 29.466232, "category": "commercial", "permit_type": "Minor Commercial Repair Permit", "permit_number": "REP-CRP-PMT25-35400107", "project_name": "448 HILDEBRAND-106", "work_type": "", "address": "448 W HILDEBRAND AVE, City of San Antonio, TX 78212", "date_issued": "2025-03-10", "valuation": 0}, {"lng": -98.501185, "lat": 29.466232, "category": "commercial", "permit_type": "Minor Commercial Repair Permit", "permit_number": "REP-CRP-PMT25-35400108", "project_name": "448 HILDEBRAND-101 and 104 combined open space", "work_type": "", "address": "448 W HILDEBRAND AVE, City of San Antonio, TX 78212", "date_issued": "2025-03-10", "valuation": 0}, {"lng": -98.520498, "lat": 29.277922, "category": "commercial", "permit_type": "Electrical General Permit", "permit_number": "MEP-ELE-PMT25-33306746", "project_name": "SWS LEON CREEK OFFICE TRAILER", "work_type": "", "address": "1104 MAUERMANN RD, City of San Antonio, TX 78224", "date_issued": "2025-03-12", "valuation": 0}, {"lng": -98.583423, "lat": 29.509336, "category": "commercial", "permit_type": "Electrical General Permit", "permit_number": "MEP-ELE-PMT25-33306768", "project_name": "Broadstone Medical - Bldg #1", "work_type": "", "address": "4900 MEDICAL DR, City of San Antonio, TX 78229", "date_issued": "2025-03-12", "valuation": 0}, {"lng": -98.583423, "lat": 29.509336, "category": "commercial", "permit_type": "Electrical General Permit", "permit_number": "MEP-ELE-PMT25-33306775", "project_name": "Broadstone Medical - Bldg #10", "work_type": "", "address": "4900 MEDICAL DR, City of San Antonio, TX 78229", "date_issued": "2025-03-12", "valuation": 0}, {"lng": -98.583423, "lat": 29.509336, "category": "commercial", "permit_type": "Electrical General Permit", "permit_number": "MEP-ELE-PMT25-33306776", "project_name": "Broadstone Medical - Bldg #14", "work_type": "", "address": "4900 MEDICAL DR, City of San Antonio, TX 78229", "date_issued": "2025-03-12", "valuation": 0}, {"lng": -98.517692, "lat": 29.641944, "category": "commercial", "permit_type": "Maintenance Permit", "permit_number": "MNT-MEP-PMT25-18200047", "project_name": "SUTTON OAKS APARTMENTS", "work_type": "", "address": "21260 GATHERING OAK, City of San Antonio, TX 78260", "date_issued": "2025-03-12", "valuation": 0}, {"lng": -98.507543, "lat": 29.487134, "category": "commercial", "permit_type": "Mechanical Permit", "permit_number": "MEP-MEC-PMT25-33906851", "project_name": "LawOffice-122736421", "work_type": "", "address": "4322 BLANCO RD, City of San Antonio, TX 78212", "date_issued": "2025-03-13", "valuation": 0}, {"lng": -98.426169, "lat": 29.517324, "category": "commercial", "permit_type": "Minor Commercial Repair Permit", "permit_number": "REP-CRP-PMT25-35400109", "project_name": "2167 NE Loop 410 Bldg #3", "work_type": "", "address": "2167 NE 410, City of San Antonio, TX 78217", "date_issued": "2025-03-13", "valuation": 0}, {"lng": -98.515851, "lat": 29.330089, "category": "commercial", "permit_type": "Residential Fence Permit", "permit_number": "RES-FEN-PMT25-31900342", "project_name": "4102 COMMERCIAL AVE", "work_type": "", "address": "4102 COMMERCIAL AVE, City of San Antonio, TX 78221", "date_issued": "2025-03-17", "valuation": 0}, {"lng": -98.443672, "lat": 29.515356, "category": "commercial", "permit_type": "Plumbing Gas Permit", "permit_number": "MEP-GAS-PMT25-34207385", "project_name": "School of Science and Technology Gas Test", "work_type": "", "address": "1450 NE 410, City of San Antonio, TX 78209", "date_issued": "2025-03-18", "valuation": 0}, {"lng": -98.498238, "lat": 29.441441, "category": "commercial", "permit_type": "Plumbing Sewer Permit", "permit_number": "MEP-SEW-PMT25-34807388", "project_name": "Law Office of Glenn Deadman", "work_type": "", "address": "319 MAVERICK ST, City of San Antonio, TX 78212", "date_issued": "2025-03-18", "valuation": 0}, {"lng": -98.628506, "lat": 29.589158, "category": "commercial", "permit_type": "Minor Commercial Repair Permit", "permit_number": "REP-CRP-PMT25-35400110", "project_name": "7023 N LOOP 1604 W  BLDG  1", "work_type": "", "address": "7023 N 1604 W, City of San Antonio, TX 78256", "date_issued": "2025-03-18", "valuation": 0}, {"lng": -98.628506, "lat": 29.589158, "category": "commercial", "permit_type": "Minor Commercial Repair Permit", "permit_number": "REP-CRP-PMT25-35400111", "project_name": "7023 N LOOP 1604 W  BLDG  2", "work_type": "", "address": "7023 N 1604 W, City of San Antonio, TX 78256", "date_issued": "2025-03-18", "valuation": 0}, {"lng": -98.628506, "lat": 29.589158, "category": "commercial", "permit_type": "Minor Commercial Repair Permit", "permit_number": "REP-CRP-PMT25-35400112", "project_name": "7023 N LOOP 1604 W  BLDG  6", "work_type": "", "address": "7023 N 1604 W, City of San Antonio, TX 78256", "date_issued": "2025-03-18", "valuation": 0}, {"lng": -98.628506, "lat": 29.589158, "category": "commercial", "permit_type": "Minor Commercial Repair Permit", "permit_number": "REP-CRP-PMT25-35400113", "project_name": "7023 N LOOP 1604 W  BLDG  20", "work_type": "", "address": "7023 N 1604 W, City of San Antonio, TX 78256", "date_issued": "2025-03-18", "valuation": 0}, {"lng": -98.449316, "lat": 29.646453, "category": "commercial", "permit_type": "Comm New Building Permit", "permit_number": "COM-BLG-PMT25-40200080", "project_name": "Building No: 22060; Unit No: Ballet Studio", "work_type": "New", "address": "22042 FRANKLIN PARK, City of San Antonio, TX 78259", "date_issued": "2025-03-19", "valuation": 1000000.0}, {"lng": -98.426169, "lat": 29.517324, "category": "commercial", "permit_type": "Minor Commercial Repair Permit", "permit_number": "REP-CRP-PMT25-35400114", "project_name": "BUILDING 13", "work_type": "", "address": "2167 NE 410, City of San Antonio, TX 78217", "date_issued": "2025-03-19", "valuation": 0}, {"lng": -98.426169, "lat": 29.517324, "category": "commercial", "permit_type": "Minor Commercial Repair Permit", "permit_number": "REP-CRP-PMT25-35400115", "project_name": "BUILDING 12", "work_type": "", "address": "2167 NE 410, City of San Antonio, TX 78217", "date_issued": "2025-03-19", "valuation": 0}, {"lng": -98.426169, "lat": 29.517324, "category": "commercial", "permit_type": "Minor Commercial Repair Permit", "permit_number": "REP-CRP-PMT25-35400116", "project_name": "BUILDING 11", "work_type": "", "address": "2167 NE 410, City of San Antonio, TX 78217", "date_issued": "2025-03-19", "valuation": 0}, {"lng": -98.426169, "lat": 29.517324, "category": "commercial", "permit_type": "Minor Commercial Repair Permit", "permit_number": "REP-CRP-PMT25-35400117", "project_name": "BUILDING 4", "work_type": "", "address": "2167 NE 410, City of San Antonio, TX 78217", "date_issued": "2025-03-19", "valuation": 0}, {"lng": -98.520498, "lat": 29.277922, "category": "commercial", "permit_type": "Electrical TML Permit", "permit_number": "MEP-TML-PMT25-44007578", "project_name": "SAWS OFFICE TRAILER TML", "work_type": "", "address": "1104 MAUERMANN RD, City of San Antonio, TX 78224", "date_issued": "2025-03-20", "valuation": 0}, {"lng": -98.495616, "lat": 29.521245, "category": "commercial", "permit_type": "Minor Commercial Repair Permit", "permit_number": "REP-CRP-PMT25-35400118", "project_name": "", "work_type": "", "address": "201 NW 410, City of San Antonio, TX 78216", "date_issued": "2025-03-20", "valuation": 0}, {"lng": -98.469949, "lat": 29.437628, "category": "commercial", "permit_type": "Minor Commercial Repair Permit", "permit_number": "REP-CRP-PMT25-35400119", "project_name": "1700 N  IH 35", "work_type": "", "address": "1700 N IH 35, City of San Antonio, TX 78208", "date_issued": "2025-03-20", "valuation": 0}, {"lng": -98.529305, "lat": 29.380733, "category": "commercial", "permit_type": "Minor Commercial Repair Permit", "permit_number": "REP-CRP-PMT25-35400120", "project_name": "3517 Nogalitos BLDG 1 Minor Commercial Repairs", "work_type": "", "address": "3517 NOGALITOS ST, City of San Antonio, TX 78211", "date_issued": "2025-03-21", "valuation": 0}, {"lng": -98.529305, "lat": 29.380733, "category": "commercial", "permit_type": "Minor Commercial Repair Permit", "permit_number": "REP-CRP-PMT25-35400121", "project_name": "3517 Nogalitos BLDG 2 Minor Commercial Repairs", "work_type": "", "address": "3517 NOGALITOS ST, City of San Antonio, TX 78211", "date_issued": "2025-03-21", "valuation": 0}, {"lng": -98.529305, "lat": 29.380733, "category": "commercial", "permit_type": "Minor Commercial Repair Permit", "permit_number": "REP-CRP-PMT25-35400122", "project_name": "3517 Nogalitos BLDG 3 Minor Commercial Repairs", "work_type": "", "address": "3517 NOGALITOS ST, City of San Antonio, TX 78211", "date_issued": "2025-03-21", "valuation": 0}, {"lng": -98.529305, "lat": 29.380733, "category": "commercial", "permit_type": "Minor Commercial Repair Permit", "permit_number": "REP-CRP-PMT25-35400123", "project_name": "3517 Nogalitos BLDG 4 Minor Commercial Repairs", "work_type": "", "address": "3517 NOGALITOS ST, City of San Antonio, TX 78211", "date_issued": "2025-03-21", "valuation": 0}, {"lng": -98.529305, "lat": 29.380733, "category": "commercial", "permit_type": "Re-Roof Permit", "permit_number": "REP-ROF-PMT25-35200873", "project_name": "3517 Nogalitos Re-roof Commercial BLDG 1", "work_type": "", "address": "3517 NOGALITOS ST, City of San Antonio, TX 78211", "date_issued": "2025-03-21", "valuation": 0}, {"lng": -98.529305, "lat": 29.380733, "category": "commercial", "permit_type": "Re-Roof Permit", "permit_number": "REP-ROF-PMT25-35200874", "project_name": "3517 Nogalitos Re-roof Commercial BLDG 2", "work_type": "", "address": "3517 NOGALITOS ST, City of San Antonio, TX 78211", "date_issued": "2025-03-21", "valuation": 0}, {"lng": -98.529305, "lat": 29.380733, "category": "commercial", "permit_type": "Re-Roof Permit", "permit_number": "REP-ROF-PMT25-35200875", "project_name": "3517 Nogalitos Re-roof Commercial BLDG 3", "work_type": "", "address": "3517 NOGALITOS ST, City of San Antonio, TX 78211", "date_issued": "2025-03-21", "valuation": 0}, {"lng": -98.529305, "lat": 29.380733, "category": "commercial", "permit_type": "Re-Roof Permit", "permit_number": "REP-ROF-PMT25-35200876", "project_name": "3517 Nogalitos Re-roof Commercial BLDG 4", "work_type": "", "address": "3517 NOGALITOS ST, City of San Antonio, TX 78211", "date_issued": "2025-03-21", "valuation": 0}, {"lng": -98.648988, "lat": 29.400627, "category": "commercial", "permit_type": "Mechanical Permit", "permit_number": "MEP-MEC-PMT25-33907832", "project_name": "Retail store", "work_type": "", "address": "2810 SW 410, City of San Antonio, TX 78227", "date_issued": "2025-03-23", "valuation": 0}, {"lng": -98.599346, "lat": 29.576927, "category": "commercial", "permit_type": "Maintenance Permit", "permit_number": "MNT-MEP-PMT25-18200057", "project_name": "THE HIGHLINE APARTMENTS", "work_type": "", "address": "5655 UTSA BLVD, City of San Antonio, TX 78249", "date_issued": "2025-03-24", "valuation": 0}, {"lng": -98.599346, "lat": 29.576927, "category": "commercial", "permit_type": "Maintenance Permit", "permit_number": "MNT-MEP-PMT25-18200058", "project_name": "THE HIGHLINE APARTMENTS", "work_type": "", "address": "5655 UTSA BLVD, City of San Antonio, TX 78249", "date_issued": "2025-03-24", "valuation": 0}, {"lng": -98.537497, "lat": 29.560714, "category": "commercial", "permit_type": "Minor Commercial Repair Permit", "permit_number": "REP-CRP-PMT25-35400124", "project_name": "13121 NW Military Hwy Bldg 1", "work_type": "", "address": "13121 NW MILITARY HWY, City of San Antonio, TX 78231", "date_issued": "2025-03-24", "valuation": 0}, {"lng": -98.537497, "lat": 29.560714, "category": "commercial", "permit_type": "Minor Commercial Repair Permit", "permit_number": "REP-CRP-PMT25-35400125", "project_name": "13121 NW Military Hwy Bldg 2", "work_type": "", "address": "13121 NW MILITARY HWY, City of San Antonio, TX 78231", "date_issued": "2025-03-24", "valuation": 0}, {"lng": -98.537497, "lat": 29.560714, "category": "commercial", "permit_type": "Minor Commercial Repair Permit", "permit_number": "REP-CRP-PMT25-35400126", "project_name": "13121 NW Military Hwy Bldg 5", "work_type": "", "address": "13121 NW MILITARY HWY, City of San Antonio, TX 78231", "date_issued": "2025-03-24", "valuation": 0}, {"lng": -98.537497, "lat": 29.560714, "category": "commercial", "permit_type": "Minor Commercial Repair Permit", "permit_number": "REP-CRP-PMT25-35400127", "project_name": "13121 NW Military Hwy Bldg 6", "work_type": "", "address": "13121 NW MILITARY HWY, City of San Antonio, TX 78231", "date_issued": "2025-03-24", "valuation": 0}, {"lng": -98.538615, "lat": 29.353439, "category": "commercial", "permit_type": "Minor Commercial Repair Permit", "permit_number": "REP-CRP-PMT25-35400128", "project_name": "", "work_type": "", "address": "7903 S IH 35, City of San Antonio, TX 78224", "date_issued": "2025-03-24", "valuation": 0}, {"lng": -98.51745, "lat": 29.547046, "category": "commercial", "permit_type": "Minor Commercial Repair Permit", "permit_number": "REP-CRP-PMT25-35400129", "project_name": "Building 18 - Minor Repair", "work_type": "", "address": "1300 PATRICIA DR, City of San Antonio, TX 78213", "date_issued": "2025-03-25", "valuation": 0}, {"lng": -98.51745, "lat": 29.547046, "category": "commercial", "permit_type": "Minor Commercial Repair Permit", "permit_number": "REP-CRP-PMT25-35400130", "project_name": "Building 17 - Minor Repair", "work_type": "", "address": "1300 PATRICIA DR, City of San Antonio, TX 78213", "date_issued": "2025-03-25", "valuation": 0}, {"lng": -98.51745, "lat": 29.547046, "category": "commercial", "permit_type": "Minor Commercial Repair Permit", "permit_number": "REP-CRP-PMT25-35400131", "project_name": "Building 8 - Minor Repair", "work_type": "", "address": "1300 PATRICIA DR, City of San Antonio, TX 78213", "date_issued": "2025-03-25", "valuation": 0}, {"lng": -98.51745, "lat": 29.547046, "category": "commercial", "permit_type": "Minor Commercial Repair Permit", "permit_number": "REP-CRP-PMT25-35400132", "project_name": "Building 9 - Minor repair", "work_type": "", "address": "1300 PATRICIA DR, City of San Antonio, TX 78213", "date_issued": "2025-03-25", "valuation": 0}, {"lng": -98.51745, "lat": 29.547046, "category": "commercial", "permit_type": "Minor Commercial Repair Permit", "permit_number": "REP-CRP-PMT25-35400133", "project_name": "Building 16 - Minor Repair", "work_type": "", "address": "1300 PATRICIA DR, City of San Antonio, TX 78213", "date_issued": "2025-03-25", "valuation": 0}, {"lng": -98.51745, "lat": 29.547046, "category": "commercial", "permit_type": "Minor Commercial Repair Permit", "permit_number": "REP-CRP-PMT25-35400134", "project_name": "Building 15 - Minor Repair", "work_type": "", "address": "1300 PATRICIA DR, City of San Antonio, TX 78213", "date_issued": "2025-03-25", "valuation": 0}, {"lng": -98.51745, "lat": 29.547046, "category": "commercial", "permit_type": "Minor Commercial Repair Permit", "permit_number": "REP-CRP-PMT25-35400135", "project_name": "Building 13 - Minor Repair", "work_type": "", "address": "1300 PATRICIA DR, City of San Antonio, TX 78213", "date_issued": "2025-03-25", "valuation": 0}, {"lng": -98.51745, "lat": 29.547046, "category": "commercial", "permit_type": "Minor Commercial Repair Permit", "permit_number": "REP-CRP-PMT25-35400136", "project_name": "Building 14 - Minor Repair", "work_type": "", "address": "1300 PATRICIA DR, City of San Antonio, TX 78213", "date_issued": "2025-03-25", "valuation": 0}, {"lng": -98.51745, "lat": 29.547046, "category": "commercial", "permit_type": "Minor Commercial Repair Permit", "permit_number": "REP-CRP-PMT25-35400137", "project_name": "Building 12 - Minor Repair", "work_type": "", "address": "1300 PATRICIA DR, City of San Antonio, TX 78213", "date_issued": "2025-03-25", "valuation": 0}, {"lng": -98.51745, "lat": 29.547046, "category": "commercial", "permit_type": "Minor Commercial Repair Permit", "permit_number": "REP-CRP-PMT25-35400138", "project_name": "Building 10 - Minor Repair", "work_type": "", "address": "1300 PATRICIA DR, City of San Antonio, TX 78213", "date_issued": "2025-03-25", "valuation": 0}, {"lng": -98.51745, "lat": 29.547046, "category": "commercial", "permit_type": "Minor Commercial Repair Permit", "permit_number": "REP-CRP-PMT25-35400139", "project_name": "Building 11 - Minor Repair", "work_type": "", "address": "1300 PATRICIA DR, City of San Antonio, TX 78213", "date_issued": "2025-03-25", "valuation": 0}, {"lng": -98.51745, "lat": 29.547046, "category": "commercial", "permit_type": "Minor Commercial Repair Permit", "permit_number": "REP-CRP-PMT25-35400140", "project_name": "Building 7 - Minor Repair", "work_type": "", "address": "1300 PATRICIA DR, City of San Antonio, TX 78213", "date_issued": "2025-03-25", "valuation": 0}, {"lng": -98.51745, "lat": 29.547046, "category": "commercial", "permit_type": "Minor Commercial Repair Permit", "permit_number": "REP-CRP-PMT25-35400141", "project_name": "Building 6 - Minor Repair", "work_type": "", "address": "1300 PATRICIA DR, City of San Antonio, TX 78213", "date_issued": "2025-03-25", "valuation": 0}, {"lng": -98.51745, "lat": 29.547046, "category": "commercial", "permit_type": "Minor Commercial Repair Permit", "permit_number": "REP-CRP-PMT25-35400142", "project_name": "Building 5 - Minor Repair", "work_type": "", "address": "1300 PATRICIA DR, City of San Antonio, TX 78213", "date_issued": "2025-03-25", "valuation": 0}, {"lng": -98.51745, "lat": 29.547046, "category": "commercial", "permit_type": "Minor Commercial Repair Permit", "permit_number": "REP-CRP-PMT25-35400143", "project_name": "Building 4 - Minor repair", "work_type": "", "address": "1300 PATRICIA DR, City of San Antonio, TX 78213", "date_issued": "2025-03-25", "valuation": 0}, {"lng": -98.51745, "lat": 29.547046, "category": "commercial", "permit_type": "Minor Commercial Repair Permit", "permit_number": "REP-CRP-PMT25-35400144", "project_name": "Building 1 - Minor repair", "work_type": "", "address": "1300 PATRICIA DR, City of San Antonio, TX 78213", "date_issued": "2025-03-25", "valuation": 0}, {"lng": -98.51745, "lat": 29.547046, "category": "commercial", "permit_type": "Minor Commercial Repair Permit", "permit_number": "REP-CRP-PMT25-35400145", "project_name": "Building 3 - Minor Repair", "work_type": "", "address": "1300 PATRICIA DR, City of San Antonio, TX 78213", "date_issued": "2025-03-25", "valuation": 0}, {"lng": -98.537497, "lat": 29.560714, "category": "commercial", "permit_type": "Minor Commercial Repair Permit", "permit_number": "REP-CRP-PMT25-35400146", "project_name": "13121 NW MILITARY HWY Bldg 11", "work_type": "", "address": "13121 NW MILITARY HWY, City of San Antonio, TX 78231", "date_issued": "2025-03-25", "valuation": 0}, {"lng": -98.537497, "lat": 29.560714, "category": "commercial", "permit_type": "Minor Commercial Repair Permit", "permit_number": "REP-CRP-PMT25-35400147", "project_name": "13121 NW MILITARY HWY Bldg 13", "work_type": "", "address": "13121 NW MILITARY HWY, City of San Antonio, TX 78231", "date_issued": "2025-03-25", "valuation": 0}, {"lng": -98.537497, "lat": 29.560714, "category": "commercial", "permit_type": "Minor Commercial Repair Permit", "permit_number": "REP-CRP-PMT25-35400148", "project_name": "13121 NW MILITARY HWY Bldg 14", "work_type": "", "address": "13121 NW MILITARY HWY, City of San Antonio, TX 78231", "date_issued": "2025-03-25", "valuation": 0}, {"lng": -98.514453, "lat": 29.358025, "category": "commercial", "permit_type": "Mechanical Permit", "permit_number": "MEP-MEC-PMT25-33908207", "project_name": "Rayburn Elementary School Gym", "work_type": "", "address": "635 RAYBURN DR, City of San Antonio, TX 78221", "date_issued": "2025-03-26", "valuation": 0}, {"lng": -98.440282, "lat": 29.573236, "category": "commercial", "permit_type": "Maintenance Permit", "permit_number": "MNT-MEP-PMT25-18200059", "project_name": "WHITE ROCK APARTMENTS/COMMONWEALTH", "work_type": "", "address": "3110 THOUSAND OAKS, City of San Antonio, TX 78247", "date_issued": "2025-03-26", "valuation": 0}, {"lng": -98.537497, "lat": 29.560714, "category": "commercial", "permit_type": "Minor Commercial Repair Permit", "permit_number": "REP-CRP-PMT25-35400149", "project_name": "", "work_type": "", "address": "13121 NW MILITARY HWY, City of San Antonio, TX 78231", "date_issued": "2025-03-26", "valuation": 0},