{"updated_at": "2026-04-02T17:12:34.725722Z", "source": "City of San Antonio Open Data", "scope": "new_builds_only_relaxed", "count": 5532, "category_counts": {"commercial": 5493, "residential": 39}, "year_counts": {"2025": 4348, "2026": 1184}, "month_counts": {"2025-01": {"commercial": 349, "residential": 7, "all": 356}, "2025-02": {"commercial": 361, "residential": 2, "all": 363}, "2025-03": {"commercial": 451, "residential": 4, "all": 455}, "2025-04": {"commercial": 525, "residential": 0, "all": 525}, "2025-05": {"commercial": 404, "residential": 5, "all": 409}, "2025-06": {"commercial": 387, "residential": 2, "all": 389}, "2025-07": {"commercial": 376, "residential": 5, "all": 381}, "2025-08": {"commercial": 321, "residential": 1, "all": 322}, "2025-09": {"commercial": 303, "residential": 1, "all": 304}, "2025-10": {"commercial": 287, "residential": 1, "all": 288}, "2025-11": {"commercial": 255, "residential": 2, "all": 257}, "2025-12": {"commercial": 297, "residential": 2, "all": 299}, "2026-01": {"commercial": 371, "residential": 3, "all": 374}, "2026-02": {"commercial": 465, "residential": 0, "all": 465}, "2026-03": {"commercial": 341, "residential": 4, "all": 345}}, "points": [{"lng": -98.603976, "lat": 29.645971, "category": "commercial", "permit_type": "Comm Retaining Wall Permit", "permit_number": "COM-RW-PMT25-41100001", "project_name": "Minor Structures - 59 Via Aragon, SA - New Retaining Wall", "work_type": "New", "address": "59 VIA ARAGON, City of San Antonio, TX 78257", "date_issued": "2025-01-02", "valuation": 35000.0}, {"lng": -98.445804, "lat": 29.340696, "category": "commercial", "permit_type": "Comm Retaining Wall Permit", "permit_number": "COM-RW-PMT25-41100002", "project_name": "SPR-Minor Structures - Altitude at Brooks", "work_type": "New", "address": "8223 INNER CIRCLE DRIVE, City of San Antonio, TX 78235", "date_issued": "2025-01-02", "valuation": 89970.0}, {"lng": -98.67731, "lat": 29.474173, "category": "commercial", "permit_type": "Comm Sitework Permit", "permit_number": "COM-SIT-PMT24-40100370", "project_name": "Complex Plans - TSSA - Building 7 HCl", "work_type": "New", "address": "9651 WESTOVER HILLS BLVD, City of San Antonio, TX 78251", "date_issued": "2025-01-02", "valuation": 1100000.0}, {"lng": -98.779381, "lat": 29.395635, "category": "commercial", "permit_type": "Res New Building Permit", "permit_number": "RES-RBP-PMT25-36600004", "project_name": "Building No: ; Unit No: N/A", "work_type": "New", "address": "3734 ROCK MILL DAM, City of San Antonio ETJ, TX 78245", "date_issued": "2025-01-02", "valuation": 0}, {"lng": -98.544553, "lat": 29.483645, "category": "commercial", "permit_type": "Comm Comm Equipment Permit", "permit_number": "COM-CEQ-PMT25-40700001", "project_name": "Minor Structures Verizon - 880108 - 683490", "work_type": "New", "address": "3924 FREDERICKSBURG RD, City of San Antonio, TX 78201", "date_issued": "2025-01-03", "valuation": 40000.0}, {"lng": -98.467678, "lat": 29.495837, "category": "commercial", "permit_type": "Comm Comm Equipment Permit", "permit_number": "COM-CEQ-PMT25-40700002", "project_name": "Minor Structures - Verizon - 843861 - 683488", "work_type": "New", "address": "1030 NACOGDOCHES RD, City of San Antonio, TX 78209", "date_issued": "2025-01-03", "valuation": 40000.0}, {"lng": -98.476486, "lat": 29.430304, "category": "commercial", "permit_type": "Comm Shade Structure Permit", "permit_number": "COM-SHD-PMT25-41200001", "project_name": "SPL-Minor Structures - Dawson Park", "work_type": "New", "address": "803 N CHERRY, City of San Antonio, TX 78202", "date_issued": "2025-01-03", "valuation": 24900.0}, {"lng": -98.428926, "lat": 29.309168, "category": "commercial", "permit_type": "Res New Building Permit", "permit_number": "RES-RBP-PMT25-36600002", "project_name": "Building No: NA; Unit No: NA", "work_type": "New", "address": "3707 GREENSFIELD WAY, City of San Antonio, TX 78223", "date_issued": "2025-01-03", "valuation": 0}, {"lng": -98.527722, "lat": 29.310342, "category": "commercial", "permit_type": "Res New Building Permit", "permit_number": "RES-RBP-PMT25-36600003", "project_name": "Building No: ; Unit No: NA", "work_type": "New", "address": "1331 NERIA LOOP, City of San Antonio, TX 78224", "date_issued": "2025-01-03", "valuation": 0}, {"lng": -98.43028, "lat": 29.308799, "category": "commercial", "permit_type": "Res New Building Permit", "permit_number": "RES-RBP-PMT25-36600007", "project_name": "Building No: ; Unit No: N/A", "work_type": "New", "address": "3630 GREENSFIELD WAY, City of San Antonio, TX 78223", "date_issued": "2025-01-03", "valuation": 0}, {"lng": -98.429148, "lat": 29.308871, "category": "commercial", "permit_type": "Res New Building Permit", "permit_number": "RES-RBP-PMT25-36600008", "project_name": "Building No: 3702 Greensfield Way; Unit No: 3702 Greensfield Way", "work_type": "New", "address": "3702 GREENSFIELD WAY, City of San Antonio, TX 78223", "date_issued": "2025-01-03", "valuation": 0}, {"lng": -98.780862, "lat": 29.396447, "category": "commercial", "permit_type": "Res New Building Permit", "permit_number": "RES-RBP-PMT25-36600009", "project_name": "Building No: ; Unit No: N/A", "work_type": "New", "address": "3619 ROCK MILL DAM, City of San Antonio ETJ, TX 78245", "date_issued": "2025-01-03", "valuation": 0}, {"lng": -98.429094, "lat": 29.309172, "category": "commercial", "permit_type": "Res New Building Permit", "permit_number": "RES-RBP-PMT25-36600010", "project_name": "Building No: ; Unit No: NA", "work_type": "New", "address": "3703 GREENSFIELD WAY, City of San Antonio, TX 78223", "date_issued": "2025-01-03", "valuation": 0}, {"lng": -98.527073, "lat": 29.310359, "category": "commercial", "permit_type": "Res New Building Permit", "permit_number": "RES-RBP-PMT25-36600013", "project_name": "Building No: ; Unit No: N/A", "work_type": "New", "address": "1311 NERIA LOOP, City of San Antonio, TX 78224", "date_issued": "2025-01-03", "valuation": 0}, {"lng": -98.429008, "lat": 29.308864, "category": "commercial", "permit_type": "Res New Building Permit", "permit_number": "RES-RBP-PMT25-36600014", "project_name": "Building No: ; Unit No: N/A", "work_type": "New", "address": "3706 GREENSFIELD WAY, City of San Antonio, TX 78223", "date_issued": "2025-01-03", "valuation": 0}, {"lng": -98.54617, "lat": 29.311331, "category": "commercial", "permit_type": "Res New Building Permit", "permit_number": "RES-RBP-PMT25-36600016", "project_name": "Building No: ; Unit No: N/A", "work_type": "New", "address": "2338 PINK PEARL DR, City of San Antonio, TX 78224", "date_issued": "2025-01-03", "valuation": 0}, {"lng": -98.26923, "lat": 29.464789, "category": "commercial", "permit_type": "Res New Building Permit", "permit_number": "RES-RBP-PMT25-36600017", "project_name": "Building No: ; Unit No: N/A", "work_type": "New", "address": "3339 GILBERT GARDEN, City of San Antonio, TX 78109", "date_issued": "2025-01-03", "valuation": 0}, {"lng": -98.269172, "lat": 29.464902, "category": "commercial", "permit_type": "Res New Building Permit", "permit_number": "RES-RBP-PMT25-36600018", "project_name": "Building No: ; Unit No: N/A", "work_type": "New", "address": "3343 GILBERT GARDEN, City of San Antonio, TX 78109", "date_issued": "2025-01-03", "valuation": 0}, {"lng": -98.631545, "lat": 29.430886, "category": "commercial", "permit_type": "Res New Building Permit", "permit_number": "RES-RBP-PMT25-36600019", "project_name": "Building No: ; Unit No: N/A", "work_type": "New", "address": "7114 SALAMANDER WAY, City of San Antonio, TX 78227", "date_issued": "2025-01-03", "valuation": 0}, {"lng": -98.696796, "lat": 29.433275, "category": "commercial", "permit_type": "Comm Sitework Permit", "permit_number": "COM-SIT-PMT23-40100513", "project_name": "Site Work - Potranco Commons SFR", "work_type": "New", "address": "310 SEASCAPE DR, City of San Antonio, TX 78245", "date_issued": "2025-01-06", "valuation": 5850000.0}, {"lng": -98.79517, "lat": 29.404863, "category": "commercial", "permit_type": "Res New Building Permit", "permit_number": "RES-RBP-PMT24-36605005", "project_name": "Building No: n/a; Unit No: n/a", "work_type": "New", "address": "2630 VISTABLUE LANE, City of San Antonio ETJ, TX 78245", "date_issued": "2025-01-06", "valuation": 0}, {"lng": -98.794055, "lat": 29.404431, "category": "commercial", "permit_type": "Res New Building Permit", "permit_number": "RES-RBP-PMT24-36605016", "project_name": "Building No: ; Unit No: N/A", "work_type": "New", "address": "2663 VISTABLUE LANE, City of San Antonio ETJ, TX 78245", "date_issued": "2025-01-06", "valuation": 0}, {"lng": -98.351498, "lat": 29.558175, "category": "commercial", "permit_type": "Res New Building Permit", "permit_number": "RES-RBP-PMT25-36600020", "project_name": "Building No: ; Unit No: N/A", "work_type": "New", "address": "13003 TOEPPERWEIN RD, City of San Antonio, TX 78233", "date_issued": "2025-01-06", "valuation": 0}, {"lng": -98.631644, "lat": 29.430915, "category": "commercial", "permit_type": "Res New Building Permit", "permit_number": "RES-RBP-PMT25-36600021", "project_name": "Building No: ; Unit No: N/A", "work_type": "New", "address": "7118 SALAMANDER WAY, City of San Antonio, TX 78227", "date_issued": "2025-01-06", "valuation": 0}, {"lng": -98.351498, "lat": 29.558175, "category": "commercial", "permit_type": "Res New Building Permit", "permit_number": "RES-RBP-PMT25-36600022", "project_name": "Building No: ; Unit No: 241", "work_type": "New", "address": "13003 TOEPPERWEIN RD, City of San Antonio, TX 78233", "date_issued": "2025-01-06", "valuation": 0}, {"lng": -98.794195, "lat": 29.40445, "category": "commercial", "permit_type": "Res New Building Permit", "permit_number": "RES-RBP-PMT25-36600023", "project_name": "Building No: 2659; Unit No: N/A", "work_type": "New", "address": "2659 VISTABLUE LANE, City of San Antonio ETJ, TX 78245", "date_issued": "2025-01-06", "valuation": 0}, {"lng": -98.428857, "lat": 29.30887, "category": "commercial", "permit_type": "Res New Building Permit", "permit_number": "RES-RBP-PMT25-36600024", "project_name": "Building No: ; Unit No: NA", "work_type": "New", "address": "3710 GREENSFIELD WAY, City of San Antonio, TX 78223", "date_issued": "2025-01-06", "valuation": 0}, {"lng": -98.351498, "lat": 29.558175, "category": "commercial", "permit_type": "Res New Building Permit", "permit_number": "RES-RBP-PMT25-36600025", "project_name": "Building No: 229; Unit No: NA", "work_type": "New", "address": "13003 TOEPPERWEIN RD, City of San Antonio, TX 78233", "date_issued": "2025-01-06", "valuation": 0}, {"lng": -98.351498, "lat": 29.558175, "category": "commercial", "permit_type": "Res New Building Permit", "permit_number": "RES-RBP-PMT25-36600040", "project_name": "Building No: 13003; Unit No: 222", "work_type": "New", "address": "13003 TOEPPERWEIN RD, City of San Antonio, TX 78233", "date_issued": "2025-01-06", "valuation": 0}, {"lng": -98.488334, "lat": 29.291255, "category": "commercial", "permit_type": "Res New Building Permit", "permit_number": "RES-RBP-PMT25-36600042", "project_name": "Building No: ; Unit No: NA", "work_type": "New", "address": "526 LEW PASS, City of San Antonio, TX 78221", "date_issued": "2025-01-06", "valuation": 0}, {"lng": -98.351498, "lat": 29.558175, "category": "commercial", "permit_type": "Res New Building Permit", "permit_number": "RES-RBP-PMT25-36600044", "project_name": "Building No: na; Unit No: 231", "work_type": "New", "address": "13003 TOEPPERWEIN RD, City of San Antonio, TX 78233", "date_issued": "2025-01-06", "valuation": 0}, {"lng": -98.596104, "lat": 29.293342, "category": "commercial", "permit_type": "Res New Building Permit", "permit_number": "RES-RBP-PMT25-36600051", "project_name": "Building No: ; Unit No: N/A", "work_type": "New", "address": "4643 BROADSIDE AVENUE, City of San Antonio, TX 78073", "date_issued": "2025-01-06", "valuation": 0}, {"lng": -98.595852, "lat": 29.293288, "category": "commercial", "permit_type": "Res New Building Permit", "permit_number": "RES-RBP-PMT25-36600053", "project_name": "Building No: ; Unit No: N/A", "work_type": "New", "address": "4635 BROADSIDE AVENUE, City of San Antonio, TX 78073", "date_issued": "2025-01-06", "valuation": 0}, {"lng": -98.285831, "lat": 29.462436, "category": "commercial", "permit_type": "Res New Building Permit", "permit_number": "RES-RBP-PMT24-36604972", "project_name": "Building No: ; Unit No: NA", "work_type": "New", "address": "10339 WHITE HART LN, City of San Antonio, TX 78109", "date_issued": "2025-01-07", "valuation": 0}, {"lng": -98.285635, "lat": 29.462327, "category": "commercial", "permit_type": "Res New Building Permit", "permit_number": "RES-RBP-PMT24-36605001", "project_name": "Building No: ; Unit No: N/A", "work_type": "New", "address": "10347 WHITE HART LN, City of San Antonio, TX 78109", "date_issued": "2025-01-07", "valuation": 0}, {"lng": -98.631441, "lat": 29.430881, "category": "commercial", "permit_type": "Res New Building Permit", "permit_number": "RES-RBP-PMT25-36600026", "project_name": "Building No: ; Unit No: NA", "work_type": "New", "address": "7110 SALAMANDER WAY, City of San Antonio, TX 78227", "date_issued": "2025-01-07", "valuation": 0}, {"lng": -98.772724, "lat": 29.389761, "category": "commercial", "permit_type": "Res New Building Permit", "permit_number": "RES-RBP-PMT25-36600027", "project_name": "Building No: ; Unit No: NA", "work_type": "New", "address": "4229 HAMPSHIRE WAY, City of San Antonio ETJ, TX 78245", "date_issued": "2025-01-07", "valuation": 0}, {"lng": -98.619965, "lat": 29.305235, "category": "commercial", "permit_type": "Res New Building Permit", "permit_number": "RES-RBP-PMT25-36600028", "project_name": "Building No: ; Unit No: N/A", "work_type": "New", "address": "6042 SINGING TRAIL, City of San Antonio, TX 78073", "date_issued": "2025-01-07", "valuation": 0}, {"lng": -98.269113, "lat": 29.465027, "category": "commercial", "permit_type": "Res New Building Permit", "permit_number": "RES-RBP-PMT25-36600029", "project_name": "Building No: ; Unit No: N/A", "work_type": "New", "address": "3347 GILBERT GARDEN, City of San Antonio, TX 78109", "date_issued": "2025-01-07", "valuation": 0}, {"lng": -98.781992, "lat": 29.397562, "category": "commercial", "permit_type": "Res New Building Permit", "permit_number": "RES-RBP-PMT25-36600030", "project_name": "Building No: ; Unit No: N/A", "work_type": "New", "address": "3406 ROCK MILL DAM, City of San Antonio ETJ, TX 78245", "date_issued": "2025-01-07", "valuation": 0}, {"lng": -98.620122, "lat": 29.305097, "category": "commercial", "permit_type": "Res New Building Permit", "permit_number": "RES-RBP-PMT25-36600033", "project_name": "Building No: ; Unit No: NA", "work_type": "New", "address": "6050 SINGING TRAIL, City of San Antonio, TX 78073", "date_issued": "2025-01-07", "valuation": 0}, {"lng": -98.62006, "lat": 29.305182, "category": "commercial", "permit_type": "Res New Building Permit", "permit_number": "RES-RBP-PMT25-36600036", "project_name": "Building No: ; Unit No: NA", "work_type": "New", "address": "6046 SINGING TRAIL, City of San Antonio, TX 78073", "date_issued": "2025-01-07", "valuation": 0}, {"lng": -98.527979, "lat": 29.310352, "category": "commercial", "permit_type": "Res New Building Permit", "permit_number": "RES-RBP-PMT25-36600037", "project_name": "Building No: ; Unit No: NA", "work_type": "New", "address": "1339 NERIA LOOP, City of San Antonio, TX 78224", "date_issued": "2025-01-07", "valuation": 0}, {"lng": -98.631315, "lat": 29.430895, "category": "commercial", "permit_type": "Res New Building Permit", "permit_number": "RES-RBP-PMT25-36600039", "project_name": "Building No: NA; Unit No: NA", "work_type": "New", "address": "7106 SALAMANDER WAY, City of San Antonio, TX 78227", "date_issued": "2025-01-07", "valuation": 0}, {"lng": -98.270563, "lat": 29.464117, "category": "commercial", "permit_type": "Res New Building Permit", "permit_number": "RES-RBP-PMT25-36600041", "project_name": "Building No: NA; Unit No: NA", "work_type": "New", "address": "3303 GINGHAM POINT, City of San Antonio, TX 78109", "date_issued": "2025-01-07", "valuation": 0}, {"lng": -98.428728, "lat": 29.308869, "category": "commercial", "permit_type": "Res New Building Permit", "permit_number": "RES-RBP-PMT25-36600043", "project_name": "Building No: 3714; Unit No: N/A", "work_type": "New", "address": "3714 GREENSFIELD WAY, City of San Antonio, TX 78223", "date_issued": "2025-01-07", "valuation": 0}, {"lng": -98.430578, "lat": 29.308785, "category": "commercial", "permit_type": "Res New Building Permit", "permit_number": "RES-RBP-PMT25-36600045", "project_name": "Building No: 3622; Unit No: N/A", "work_type": "New", "address": "3622 GREENSFIELD WAY, City of San Antonio, TX 78223", "date_issued": "2025-01-07", "valuation": 0}, {"lng": -98.772884, "lat": 29.390063, "category": "commercial", "permit_type": "Res New Building Permit", "permit_number": "RES-RBP-PMT25-36600046", "project_name": "Building No: ; Unit No: N/A", "work_type": "New", "address": "4221 HAMPSHIRE WAY, City of San Antonio ETJ, TX 78245", "date_issued": "2025-01-07", "valuation": 0}, {"lng": -98.781893, "lat": 29.397375, "category": "commercial", "permit_type": "Res New Building Permit", "permit_number": "RES-RBP-PMT25-36600047", "project_name": "Building No: ; Unit No: N/A", "work_type": "New", "address": "3414 ROCK MILL DAM, City of San Antonio ETJ, TX 78245", "date_issued": "2025-01-07", "valuation": 0}, {"lng": -98.572655, "lat": 29.337962, "category": "commercial", "permit_type": "Res New Building Permit", "permit_number": "RES-RBP-PMT25-36600048", "project_name": "Building No: ; Unit No: N/A", "work_type": "New", "address": "3926 BATES PLACE, City of San Antonio, TX 78211", "date_issued": "2025-01-07", "valuation": 0}, {"lng": -98.616414, "lat": 29.304609, "category": "commercial", "permit_type": "Res New Building Permit", "permit_number": "RES-RBP-PMT25-36600049", "project_name": "Building No: ; Unit No: N/A", "work_type": "New", "address": "11926 RUNNING DOG RD, City of San Antonio, TX 78073", "date_issued": "2025-01-07", "valuation": 0}, {"lng": -98.488052, "lat": 29.29092, "category": "commercial", "permit_type": "Res New Building Permit", "permit_number": "RES-RBP-PMT25-36600050", "project_name": "Building No: 514; Unit No: N/A", "work_type": "New", "address": "514 LEW PASS, City of San Antonio, TX 78221", "date_issued": "2025-01-07", "valuation": 0}, {"lng": -98.527823, "lat": 29.309083, "category": "commercial", "permit_type": "Res New Building Permit", "permit_number": "RES-RBP-PMT25-36600052", "project_name": "Building No: ; Unit No: N/A", "work_type": "New", "address": "10819 SOUPE COVE, City of San Antonio, TX 78224", "date_issued": "2025-01-07", "valuation": 0}, {"lng": -98.429473, "lat": 29.308879, "category": "commercial", "permit_type": "Res New Building Permit", "permit_number": "RES-RBP-PMT25-36600054", "project_name": "Building No: 3650; Unit No: N/A", "work_type": "New", "address": "3650 GREENSFIELD WAY, City of San Antonio, TX 78223", "date_issued": "2025-01-07", "valuation": 0}, {"lng": -98.269041, "lat": 29.465177, "category": "commercial", "permit_type": "Res New Building Permit", "permit_number": "RES-RBP-PMT25-36600055", "project_name": "Building No: ; Unit No: N/A", "work_type": "New", "address": "3351 GILBERT GARDEN, City of San Antonio, TX 78109", "date_issued": "2025-01-07", "valuation": 0}, {"lng": -98.483463, "lat": 29.285275, "category": "commercial", "permit_type": "Res New Building Permit", "permit_number": "RES-RBP-PMT25-36600056", "project_name": "Building No: ; Unit No: NA", "work_type": "New", "address": "1045 GRAHAM BEND, City of San Antonio, TX 78221", "date_issued": "2025-01-07", "valuation": 0}, {"lng": -98.26862, "lat": 29.465262, "category": "commercial", "permit_type": "Res New Building Permit", "permit_number": "RES-RBP-PMT25-36600057", "project_name": "Building No: ; Unit No: N/A", "work_type": "New", "address": "3359 GILBERT GARDEN, City of San Antonio, TX 78109", "date_issued": "2025-01-07", "valuation": 0}, {"lng": -98.569439, "lat": 29.338573, "category": "commercial", "permit_type": "Res New Building Permit", "permit_number": "RES-RBP-PMT25-36600058", "project_name": "Building No: ; Unit No: NA", "work_type": "New", "address": "8806 PYRON PLACE, City of San Antonio, TX 78211", "date_issued": "2025-01-07", "valuation": 0}, {"lng": -98.383394, "lat": 29.390024, "category": "commercial", "permit_type": "Res New Building Permit", "permit_number": "RES-RBP-PMT25-36600059", "project_name": "Building No: ; Unit No: N/A", "work_type": "New", "address": "5239 THISTLE PLACE, City of San Antonio, TX 78222", "date_issued": "2025-01-07", "valuation": 0}, {"lng": -98.270647, "lat": 29.464011, "category": "commercial", "permit_type": "Res New Building Permit", "permit_number": "RES-RBP-PMT25-36600060", "project_name": "Building No: ; Unit No: NA", "work_type": "New", "address": "3251 GINGHAM POINT, City of San Antonio, TX 78109", "date_issued": "2025-01-07", "valuation": 0}, {"lng": -98.589148, "lat": 29.582958, "category": "commercial", "permit_type": "Res New Building Permit", "permit_number": "RES-RBP-PMT25-36600061", "project_name": "Building No: ; Unit No: 812", "work_type": "New", "address": "14839 VANCE JACKSON, City of San Antonio, TX 78249", "date_issued": "2025-01-07", "valuation": 0}, {"lng": -98.782187, "lat": 29.397189, "category": "commercial", "permit_type": "Res New Building Permit", "permit_number": "RES-RBP-PMT25-36600062", "project_name": "Building No: ; Unit No: NA", "work_type": "New", "address": "3415 ROCK MILL DAM, City of San Antonio ETJ, TX 78245", "date_issued": "2025-01-07", "valuation": 0}, {"lng": -98.569381, "lat": 29.338478, "category": "commercial", "permit_type": "Res New Building Permit", "permit_number": "RES-RBP-PMT25-36600063", "project_name": "Building No: ; Unit No: N/A", "work_type": "New", "address": "8810 PYRON PLACE, City of San Antonio, TX 78211", "date_issued": "2025-01-07", "valuation": 0}, {"lng": -98.781964, "lat": 29.397441, "category": "commercial", "permit_type": "Res New Building Permit", "permit_number": "RES-RBP-PMT25-36600064", "project_name": "Building No: ; Unit No: N/A", "work_type": "New", "address": "3410 ROCK MILL DAM, City of San Antonio ETJ, TX 78245", "date_issued": "2025-01-07", "valuation": 0}, {"lng": -98.598243, "lat": 29.284101, "category": "commercial", "permit_type": "Res New Building Permit", "permit_number": "RES-RBP-PMT25-36600065", "project_name": "AFF - 4811 ROSIES STABLE", "work_type": "New", "address": "4811 ROSIES STABLE, City of San Antonio, TX 78073", "date_issued": "2025-01-07", "valuation": 0}, {"lng": -98.572786, "lat": 29.337974, "category": "commercial", "permit_type": "Res New Building Permit", "permit_number": "RES-RBP-PMT25-36600066", "project_name": "Building No: ; Unit No: NA", "work_type": "New", "address": "3930 BATES PLACE, City of San Antonio, TX 78211", "date_issued": "2025-01-07", "valuation": 0}, {"lng": -98.589148, "lat": 29.582958, "category": "commercial", "permit_type": "Res New Building Permit", "permit_number": "RES-RBP-PMT25-36600069", "project_name": "Building No: 1506; Unit No: NA", "work_type": "New", "address": "14839 VANCE JACKSON, City of San Antonio, TX 78249", "date_issued": "2025-01-07", "valuation": 0}, {"lng": -98.351498, "lat": 29.558175, "category": "commercial", "permit_type": "Res New Building Permit", "permit_number": "RES-RBP-PMT25-36600070", "project_name": "Building No: 226; Unit No: NA", "work_type": "New", "address": "13003 TOEPPERWEIN RD, City of San Antonio, TX 78233", "date_issued": "2025-01-07", "valuation": 0}, {"lng": -98.779443, "lat": 29.39573, "category": "commercial", "permit_type": "Res New Building Permit", "permit_number": "RES-RBP-PMT25-36600073", "project_name": "Building No: ; Unit No: NA", "work_type": "New", "address": "3730 ROCK MILL DAM, City of San Antonio ETJ, TX 78245", "date_issued": "2025-01-07", "valuation": 0}, {"lng": -98.351498, "lat": 29.558175, "category": "commercial", "permit_type": "Res New Building Permit", "permit_number": "RES-RBP-PMT25-36600074", "project_name": "Building No: ; Unit No: 224", "work_type": "New", "address": "13003 TOEPPERWEIN RD, City of San Antonio, TX 78233", "date_issued": "2025-01-07", "valuation": 0}, {"lng": -98.572908, "lat": 29.33799, "category": "commercial", "permit_type": "Res New Building Permit", "permit_number": "RES-RBP-PMT25-36600075", "project_name": "Building No: ; Unit No: N/A", "work_type": "New", "address": "3934 BATES PLACE, City of San Antonio, TX 78211", "date_issued": "2025-01-07", "valuation": 0}, {"lng": -98.772855, "lat": 29.390204, "category": "commercial", "permit_type": "Res New Building Permit", "permit_number": "RES-RBP-PMT25-36600076", "project_name": "Building No: ; Unit No: N/A", "work_type": "New", "address": "4217 HAMPSHIRE WAY, City of San Antonio ETJ, TX 78245", "date_issued": "2025-01-07", "valuation": 0}, {"lng": -98.635705, "lat": 29.334737, "category": "commercial", "permit_type": "Res New Building Permit", "permit_number": "RES-RBP-PMT25-36600077", "project_name": "Building No: NA; Unit No: NA", "work_type": "New", "address": "8935 COSMO COVE, City of San Antonio, TX 78252", "date_issued": "2025-01-07", "valuation": 0}, {"lng": -98.794893, "lat": 29.404843, "category": "commercial", "permit_type": "Res New Building Permit", "permit_number": "RES-RBP-PMT25-36600078", "project_name": "Building No: ; Unit No: N/A", "work_type": "New", "address": "2638 VISTABLUE LANE, City of San Antonio ETJ, TX 78245", "date_issued": "2025-01-07", "valuation": 0}, {"lng": -98.3835, "lat": 29.390012, "category": "commercial", "permit_type": "Res New Building Permit", "permit_number": "RES-RBP-PMT25-36600081", "project_name": "Building No: 5235; Unit No: N/A", "work_type": "New", "address": "5235 THISTLE PLACE, City of San Antonio, TX 78222", "date_issued": "2025-01-07", "valuation": 0}, {"lng": -98.390732, "lat": 29.275713, "category": "commercial", "permit_type": "Res New Building Permit", "permit_number": "RES-RBP-PMT25-36600083", "project_name": "Building No: ; Unit No: N/A", "work_type": "New", "address": "14418 STINGER HOOK, City of San Antonio, TX 78112", "date_issued": "2025-01-07", "valuation": 0}, {"lng": -98.494062, "lat": 29.445144, "category": "commercial", "permit_type": "Comm Comm Equipment Permit", "permit_number": "COM-CEQ-PMT25-40700003", "project_name": "Minor Structures - Verizon - 870775 - 683492", "work_type": "New", "address": "1700 N MAIN AVE, City of San Antonio, TX 78212", "date_issued": "2025-01-08", "valuation": 40000.0}, {"lng": -98.450075, "lat": 29.586156, "category": "commercial", "permit_type": "Comm Comm Equipment Permit", "permit_number": "COM-CEQ-PMT25-40700004", "project_name": "Minor Structures - PIPESTONE_REPL", "work_type": "New", "address": "2407 THOUSAND OAKS, City of San Antonio, TX 78232", "date_issued": "2025-01-08", "valuation": 5000.0}, {"lng": -98.547966, "lat": 29.506286, "category": "commercial", "permit_type": "Comm Comm Equipment Permit", "permit_number": "COM-CEQ-PMT25-40700005", "project_name": "Minor Structures - Holiday Inn", "work_type": "New", "address": "3233 NW 410, City of San Antonio, TX 78213", "date_issued": "2025-01-08", "valuation": 5000.0}, {"lng": -98.641625, "lat": 29.347431, "category": "commercial", "permit_type": "Res New Building Permit", "permit_number": "RES-RBP-PMT25-36600038", "project_name": "Building No: 7411; Unit No: N/A", "work_type": "New", "address": "7411 PERSEUS BROOK, City of San Antonio, TX 78252", "date_issued": "2025-01-08", "valuation": 0}, {"lng": -98.59807, "lat": 29.283667, "category": "commercial", "permit_type": "Res New Building Permit", "permit_number": "RES-RBP-PMT25-36600072", "project_name": "AFF - 4806 ROSIES STABLE", "work_type": "New", "address": "4806 ROSIES STABLE, City of San Antonio, TX 78073", "date_issued": "2025-01-08", "valuation": 0}, {"lng": -98.487981, "lat": 29.290596, "category": "commercial", "permit_type": "Res New Building Permit", "permit_number": "RES-RBP-PMT25-36600082", "project_name": "Building No: 506; Unit No: N/A", "work_type": "New", "address": "506 LEW PASS, City of San Antonio, TX 78221", "date_issued": "2025-01-08", "valuation": 0}, {"lng": -98.772885, "lat": 29.389851, "category": "commercial", "permit_type": "Res New Building Permit", "permit_number": "RES-RBP-PMT25-36600084", "project_name": "Building No: 4225; Unit No: N/A", "work_type": "New", "address": "4225 HAMPSHIRE WAY, City of San Antonio ETJ, TX 78245", "date_issued": "2025-01-08", "valuation": 0}, {"lng": -98.782981, "lat": 29.398036, "category": "commercial", "permit_type": "Res New Building Permit", "permit_number": "RES-RBP-PMT25-36600089", "project_name": "Building No: 3311; Unit No: N/A", "work_type": "New", "address": "3311 ROCK MILL DAM, City of San Antonio ETJ, TX 78245", "date_issued": "2025-01-08", "valuation": 0}, {"lng": -98.3972, "lat": 29.38452, "category": "commercial", "permit_type": "Res New Building Permit", "permit_number": "RES-RBP-PMT25-36600096", "project_name": "Building No: 4727; Unit No: N/A", "work_type": "New", "address": "4727 PICO PICO ST, City of San Antonio, TX 78222", "date_issued": "2025-01-08", "valuation": 0}, {"lng": -98.401306, "lat": 29.381753, "category": "commercial", "permit_type": "Res New Building Permit", "permit_number": "RES-RBP-PMT25-36600097", "project_name": "Building No: ; Unit No: N/A", "work_type": "New", "address": "4610 OTRA OTRA DR, City of San Antonio, TX 78222", "date_issued": "2025-01-08", "valuation": 0}, {"lng": -98.795442, "lat": 29.404879, "category": "commercial", "permit_type": "Res New Building Permit", "permit_number": "RES-RBP-PMT25-36600080", "project_name": "Building No: ; Unit No: n/a", "work_type": "New", "address": "2622 VISTABLUE LANE, City of San Antonio ETJ, TX 78245", "date_issued": "2025-01-09", "valuation": 0}, {"lng": -98.636067, "lat": 29.334579, "category": "commercial", "permit_type": "Res New Building Permit", "permit_number": "RES-RBP-PMT25-36600090", "project_name": "Building No: ; Unit No: NA", "work_type": "New", "address": "8934 COSMO COVE, City of San Antonio, TX 78252", "date_issued": "2025-01-09", "valuation": 0}, {"lng": -98.616315, "lat": 29.304444, "category": "commercial", "permit_type": "Res New Building Permit", "permit_number": "RES-RBP-PMT25-36600091", "project_name": "Building No: 11930; Unit No: N/A", "work_type": "New", "address": "11930 RUNNING DOG RD, City of San Antonio, TX 78073", "date_issued": "2025-01-09", "valuation": 0}, {"lng": -98.595206, "lat": 29.299955, "category": "commercial", "permit_type": "Res New Building Permit", "permit_number": "RES-RBP-PMT25-36600092", "project_name": "Building No: ; Unit No: N/A", "work_type": "New", "address": "4719 LEGACY POINT, City of San Antonio, TX 78073", "date_issued": "2025-01-09", "valuation": 0}, {"lng": -98.781633, "lat": 29.397167, "category": "commercial", "permit_type": "Res New Building Permit", "permit_number": "RES-RBP-PMT25-36600094", "project_name": "Building No: ; Unit No: NA", "work_type": "New", "address": "3502 ROCK MILL DAM, City of San Antonio ETJ, TX 78245", "date_issued": "2025-01-09", "valuation": 0}, {"lng": -98.488265, "lat": 29.291774, "category": "commercial", "permit_type": "Res New Building Permit", "permit_number": "RES-RBP-PMT25-36600095", "project_name": "Building No: ; Unit No: NA", "work_type": "New", "address": "12003 KITE BEND, City of San Antonio, TX 78221", "date_issued": "2025-01-09", "valuation": 0}, {"lng": -98.570305, "lat": 29.33774, "category": "commercial", "permit_type": "Res New Building Permit", "permit_number": "RES-RBP-PMT25-36600098", "project_name": "Building No: NA; Unit No: NA", "work_type": "New", "address": "3730 BATES PLACE, City of San Antonio, TX 78211", "date_issued": "2025-01-09", "valuation": 0}, {"lng": -98.598056, "lat": 29.284056, "category": "commercial", "permit_type": "Res New Building Permit", "permit_number": "RES-RBP-PMT25-36600099", "project_name": "AFF - 4807 ROSIES STABLE", "work_type": "New", "address": "4807 ROSIES STABLE, City of San Antonio, TX 78073", "date_issued": "2025-01-09", "valuation": 0}, {"lng": -98.484718, "lat": 29.284627, "category": "commercial", "permit_type": "Res New Building Permit", "permit_number": "RES-RBP-PMT25-36600100", "project_name": "Building No: ; Unit No: N/A", "work_type": "New", "address": "13506 FURYK DR, City of San Antonio, TX 78221", "date_issued": "2025-01-09", "valuation": 0}, {"lng": -98.781718, "lat": 29.397205, "category": "commercial", "permit_type": "Res New Building Permit", "permit_number": "RES-RBP-PMT25-36600101", "project_name": "Building No: ; Unit No: N/A", "work_type": "New", "address": "3424 ROCK MILL DAM, City of San Antonio ETJ, TX 78245", "date_issued": "2025-01-09", "valuation": 0}, {"lng": -98.597345, "lat": 29.353301, "category": "commercial", "permit_type": "Res New Building Permit", "permit_number": "RES-RBP-PMT25-36600102", "project_name": "Building No: ; Unit No: N/A", "work_type": "New", "address": "5115 FARR DR, City of San Antonio, TX 78242", "date_issued": "2025-01-09", "valuation": 0}, {"lng": -98.544978, "lat": 29.311323, "category": "commercial", "permit_type": "Res New Building Permit", "permit_number": "RES-RBP-PMT25-36600103", "project_name": "Building No: NA; Unit No: N/A", "work_type": "New", "address": "2302 PINK PEARL DR, City of San Antonio, TX 78224", "date_issued": "2025-01-09", "valuation": 0}, {"lng": -98.569301, "lat": 29.3382, "category": "commercial", "permit_type": "Res New Building Permit", "permit_number": "RES-RBP-PMT25-36600108", "project_name": "Building No: ; Unit No: N/A", "work_type": "New", "address": "8822 PYRON PLACE, City of San Antonio, TX 78211", "date_issued": "2025-01-09", "valuation": 0}, {"lng": -98.569247, "lat": 29.338105, "category": "commercial", "permit_type": "Res New Building Permit", "permit_number": "RES-RBP-PMT25-36600109", "project_name": "Building No: NA; Unit No: NA", "work_type": "New", "address": "8826 PYRON PLACE, City of San Antonio, TX 78211", "date_issued": "2025-01-09", "valuation": 0}, {"lng": -98.527279, "lat": 29.309291, "category": "commercial", "permit_type": "Res New Building Permit", "permit_number": "RES-RBP-PMT25-36600110", "project_name": "Building No: ; Unit No: NA", "work_type": "New", "address": "10810 SOUPE COVE, City of San Antonio, TX 78224", "date_issued": "2025-01-09", "valuation": 0}, {"lng": -98.474161, "lat": 29.288465, "category": "residential", "permit_type": "Res New Building Permit", "permit_number": "RES-RBP-PMT25-36600111", "project_name": "Building No: 13218; Unit No: N/A", "work_type": "New", "address": "13218 CLUB HOUSE BLVD, City of San Antonio, TX 78221", "date_issued": "2025-01-09", "valuation": 0}, {"lng": -98.390983, "lat": 29.276035, "category": "commercial", "permit_type": "Res New Building Permit", "permit_number": "RES-RBP-PMT25-36600115", "project_name": "Building No: NA; Unit No: N/A", "work_type": "New", "address": "14415 STINGER HOOK, City of San Antonio, TX 78112", "date_issued": "2025-01-09", "valuation": 0}, {"lng": -98.48543, "lat": 29.285954, "category": "commercial", "permit_type": "Res New Building Permit", "permit_number": "RES-RBP-PMT25-36600104", "project_name": "Building No: ; Unit No: NA", "work_type": "New", "address": "13418 FURYK DR, City of San Antonio, TX 78221", "date_issued": "2025-01-10", "valuation": 0}, {"lng": -98.425211, "lat": 29.309502, "category": "residential", "permit_type": "Res New Building Permit", "permit_number": "RES-RBP-PMT25-36600105", "project_name": "Building No: NA; Unit No: NA", "work_type": "New", "address": "3910 FARMHOUSE CT, City of San Antonio, TX 78223", "date_issued": "2025-01-10", "valuation": 0}, {"lng": -98.569323, "lat": 29.338303, "category": "commercial", "permit_type": "Res New Building Permit", "permit_number": "RES-RBP-PMT25-36600106", "project_name": "Building No: 8818; Unit No: N/A", "work_type": "New", "address": "8818 PYRON PLACE, City of San Antonio, TX 78211", "date_issued": "2025-01-10", "valuation": 0}, {"lng": -98.569354, "lat": 29.338395, "category": "commercial", "permit_type": "Res New Building Permit", "permit_number": "RES-RBP-PMT25-36600107", "project_name": "Building No: ; Unit No: N/A", "work_type": "New", "address": "8814 PYRON PLACE, City of San Antonio, TX 78211", "date_issued": "2025-01-10", "valuation": 0}, {"lng": -98.640462, "lat": 29.429238, "category": "commercial", "permit_type": "Res New Building Permit", "permit_number": "RES-RBP-PMT25-36600112", "project_name": "Building No: ; Unit No: N/A", "work_type": "New", "address": "7714 BOHEMIAN GROVE, City of San Antonio, TX 78227", "date_issued": "2025-01-10", "valuation": 0}, {"lng": -98.640601, "lat": 29.429239, "category": "commercial", "permit_type": "Res New Building Permit", "permit_number": "RES-RBP-PMT25-36600113", "project_name": "Building No: ; Unit No: N/A", "work_type": "New", "address": "7718 BOHEMIAN GROVE, City of San Antonio, TX 78227", "date_issued": "2025-01-10", "valuation": 0}, {"lng": -98.351498, "lat": 29.558175, "category": "commercial", "permit_type": "Res New Building Permit", "permit_number": "RES-RBP-PMT25-36600116", "project_name": "Building No: ; Unit No: 228", "work_type": "New", "address": "13003 TOEPPERWEIN RD, City of San Antonio, TX 78233", "date_issued": "2025-01-10", "valuation": 0}, {"lng": -98.782126, "lat": 29.397089, "category": "commercial", "permit_type": "Res New Building Permit", "permit_number": "RES-RBP-PMT25-36600119", "project_name": "Building No: NA; Unit No: NA", "work_type": "New", "address": "3419 ROCK MILL DAM, City of San Antonio ETJ, TX 78245", "date_issued": "2025-01-10", "valuation": 0}, {"lng": -98.632094, "lat": 29.430604, "category": "commercial", "permit_type": "Res New Building Permit", "permit_number": "RES-RBP-PMT25-36600121", "project_name": "Building No: ; Unit No: NA", "work_type": "New", "address": "7135 SHAMROCK DOME, City of San Antonio, TX 78227", "date_issued": "2025-01-10", "valuation": 0}, {"lng": -98.782815, "lat": 29.397924, "category": "commercial", "permit_type": "Res New Building Permit", "permit_number": "RES-RBP-PMT25-36600123", "project_name": "Building No: ; Unit No: N/A", "work_type": "New", "address": "3319 ROCK MILL DAM, City of San Antonio ETJ, TX 78245", "date_issued": "2025-01-10", "valuation": 0}, {"lng": -98.640749, "lat": 29.429243, "category": "commercial", "permit_type": "Res New Building Permit", "permit_number": "RES-RBP-PMT25-36600126", "project_name": "Building No: 7722; Unit No: N/A", "work_type": "New", "address": "7722 BOHEMIAN GROVE, City of San Antonio, TX 78227", "date_issued": "2025-01-10", "valuation": 0}, {"lng": -98.640893, "lat": 29.429231, "category": "commercial", "permit_type": "Res New Building Permit", "permit_number": "RES-RBP-PMT25-36600127", "project_name": "Building No: NA; Unit No: NA", "work_type": "New", "address": "7726 BOHEMIAN GROVE, City of San Antonio, TX 78227", "date_issued": "2025-01-10", "valuation": 0}, {"lng": -98.59492, "lat": 29.299914, "category": "commercial", "permit_type": "Res New Building Permit", "permit_number": "RES-RBP-PMT25-36600128", "project_name": "Building No: ; Unit No: NA", "work_type": "New", "address": "4711 LEGACY POINT, City of San Antonio, TX 78073", "date_issued": "2025-01-10", "valuation": 0}, {"lng": -98.595046, "lat": 29.29995, "category": "commercial", "permit_type": "Res New Building Permit", "permit_number": "RES-RBP-PMT25-36600132", "project_name": "Building No: 4715 Legacy Point; Unit No: NA", "work_type": "New", "address": "4715 LEGACY POINT, City of San Antonio, TX 78073", "date_issued": "2025-01-10", "valuation": 0}, {"lng": -98.484753, "lat": 29.414476, "category": "commercial", "permit_type": "Comm Comm Equipment Permit", "permit_number": "COM-CEQ-PMT25-40700007", "project_name": "Minor Structures - CAMARGOST", "work_type": "New", "address": "411 BARRERA, City of San Antonio, TX 78210", "date_issued": "2025-01-13", "valuation": 5000.0}, {"lng": -98.450631, "lat": 29.643655, "category": "commercial", "permit_type": "Comm Shell Permit", "permit_number": "COM-SHL-PMT24-40400108", "project_name": "Building No: 1; Unit No: 1", "work_type": "New", "address": "21702 ENCINO COMMONS, City of San Antonio, TX 78259", "date_issued": "2025-01-13", "valuation": 1200000.0}, {"lng": -98.790471, "lat": 29.405808, "category": "commercial", "permit_type": "Res New Building Permit", "permit_number": "RES-RBP-PMT25-36600129", "project_name": "Building No: ; Unit No: N/A", "work_type": "New", "address": "14910 FARAWAY MEADOW, City of San Antonio ETJ, TX 78245", "date_issued": "2025-01-13", "valuation": 0}, {"lng": -98.791417, "lat": 29.405983, "category": "commercial", "permit_type": "Res New Building Permit", "permit_number": "RES-RBP-PMT25-36600131", "project_name": "Building No: ; Unit No: N/A", "work_type": "New", "address": "2447 TINKERTON, City of San Antonio ETJ, TX 78245", "date_issued": "2025-01-13", "valuation": 0}, {"lng": -98.351498, "lat": 29.558175, "category": "commercial", "permit_type": "Res New Building Permit", "permit_number": "RES-RBP-PMT25-36600133", "project_name": "Building No: ; Unit No: N/A", "work_type": "New", "address": "13003 TOEPPERWEIN RD, City of San Antonio, TX 78233", "date_issued": "2025-01-13", "valuation": 0}, {"lng": -98.351498, "lat": 29.558175, "category": "commercial", "permit_type": "Res New Building Permit", "permit_number": "RES-RBP-PMT25-36600134", "project_name": "Building No: 243; Unit No: NA", "work_type": "New", "address": "13003 TOEPPERWEIN RD, City of San Antonio, TX 78233", "date_issued": "2025-01-13", "valuation": 0}, {"lng": -98.527308, "lat": 29.309174, "category": "commercial", "permit_type": "Res New Building Permit", "permit_number": "RES-RBP-PMT25-36600137", "project_name": "Building No: 10814 Soupe Cove; Unit No: 10814 Soupe Cove", "work_type": "New", "address": "10814 SOUPE COVE, City of San Antonio, TX 78224", "date_issued": "2025-01-13", "valuation": 0}, {"lng": -98.48473, "lat": 29.284816, "category": "commercial", "permit_type": "Res New Building Permit", "permit_number": "RES-RBP-PMT25-36600138", "project_name": "Building No: 13470; Unit No: N/A", "work_type": "New", "address": "13470 FURYK DR, City of San Antonio, TX 78221", "date_issued": "2025-01-13", "valuation": 0}, {"lng": -98.631985, "lat": 29.430566, "category": "commercial", "permit_type": "Res New Building Permit", "permit_number": "RES-RBP-PMT25-36600139", "project_name": "Building No: ; Unit No: NA", "work_type": "New", "address": "7131 SHAMROCK DOME, City of San Antonio, TX 78227", "date_issued": "2025-01-13", "valuation": 0}, {"lng": -98.611229, "lat": 29.294967, "category": "commercial", "permit_type": "Res New Building Permit", "permit_number": "RES-RBP-PMT25-36600140", "project_name": "Building No: ; Unit No: N/A", "work_type": "New", "address": "5538 FREDERICK BLF, City of San Antonio, TX 78073", "date_issued": "2025-01-13", "valuation": 0}, {"lng": -98.400837, "lat": 29.382141, "category": "commercial", "permit_type": "Res New Building Permit", "permit_number": "RES-RBP-PMT25-36600144", "project_name": "Building No: ; Unit No: N/A", "work_type": "New", "address": "4627 OTRA OTRA DR, City of San Antonio, TX 78222", "date_issued": "2025-01-13", "valuation": 0}, {"lng": -98.400317, "lat": 29.381771, "category": "commercial", "permit_type": "Res New Building Permit", "permit_number": "RES-RBP-PMT25-36600145", "project_name": "Building No: ; Unit No: N/A", "work_type": "New", "address": "4646 OTRA OTRA DR, City of San Antonio, TX 78222", "date_issued": "2025-01-13", "valuation": 0}, {"lng": -98.78205, "lat": 29.397002, "category": "commercial", "permit_type": "Res New Building Permit", "permit_number": "RES-RBP-PMT25-36600146", "project_name": "Building No: NA; Unit No: NA", "work_type": "New", "address": "3423 ROCK MILL DAM, City of San Antonio ETJ, TX 78245", "date_issued": "2025-01-13", "valuation": 0}, {"lng": -98.40115, "lat": 29.382138, "category": "commercial", "permit_type": "Res New Building Permit", "permit_number": "RES-RBP-PMT25-36600147", "project_name": "Building No: ; Unit No: N/A", "work_type": "New", "address": "4615 OTRA OTRA DR, City of San Antonio, TX 78222", "date_issued": "2025-01-13", "valuation": 0}, {"lng": -98.527807, "lat": 29.308975, "category": "commercial", "permit_type": "Res New Building Permit", "permit_number": "RES-RBP-PMT25-36600148", "project_name": "Building No: ; Unit No: N/A", "work_type": "New", "address": "10823 SOUPE COVE, City of San Antonio, TX 78224", "date_issued": "2025-01-13", "valuation": 0}, {"lng": -98.608186, "lat": 29.295262, "category": "commercial", "permit_type": "Res New Building Permit", "permit_number": "RES-RBP-PMT25-36600149", "project_name": "Building No: ; Unit No: N/A", "work_type": "New", "address": "5211 MARLIESE PEAK, City of San Antonio, TX 78073", "date_issued": "2025-01-13", "valuation": 0}, {"lng": -98.48339, "lat": 29.285327, "category": "commercial", "permit_type": "Res New Building Permit", "permit_number": "RES-RBP-PMT25-36600150", "project_name": "Building No: 1049; Unit No: N/A", "work_type": "New", "address": "1049 GRAHAM BEND, City of San Antonio, TX 78221", "date_issued": "2025-01-13", "valuation": 0}, {"lng": -98.794744, "lat": 29.404828, "category": "commercial", "permit_type": "Res New Building Permit", "permit_number": "RES-RBP-PMT25-36600151", "project_name": "Building No: 2642; Unit No: N/A", "work_type": "New", "address": "2642 VISTABLUE LANE, City of San Antonio ETJ, TX 78245", "date_issued": "2025-01-13", "valuation": 0}, {"lng": -98.595542, "lat": 29.300413, "category": "commercial", "permit_type": "Res New Building Permit", "permit_number": "RES-RBP-PMT25-36600152", "project_name": "Building No: NA; Unit No: NA", "work_type": "New", "address": "4730 LEGACY TRAIL, City of San Antonio, TX 78073", "date_issued": "2025-01-13", "valuation": 0}, {"lng": -98.59568, "lat": 29.300424, "category": "commercial", "permit_type": "Res New Building Permit", "permit_number": "RES-RBP-PMT25-36600153", "project_name": "Building No: ; Unit No: N/A", "work_type": "New", "address": "4734 LEGACY TRAIL, City of San Antonio, TX 78073", "date_issued": "2025-01-13", "valuation": 0}, {"lng": -98.570765, "lat": 29.337793, "category": "commercial", "permit_type": "Res New Building Permit", "permit_number": "RES-RBP-PMT25-36600154", "project_name": "Building No: NA; Unit No: NA", "work_type": "New", "address": "3802 BATES PLACE, City of San Antonio, TX 78211", "date_issued": "2025-01-13", "valuation": 0}, {"lng": -98.528113, "lat": 29.310358, "category": "commercial", "permit_type": "Res New Building Permit", "permit_number": "RES-RBP-PMT25-36600156", "project_name": "Building No: ; Unit No: N/A", "work_type": "New", "address": "1343 NERIA LOOP, City of San Antonio, TX 78224", "date_issued": "2025-01-13", "valuation": 0}, {"lng": -98.483312, "lat": 29.28541, "category": "commercial", "permit_type": "Res New Building Permit", "permit_number": "RES-RBP-PMT25-36600157", "project_name": "Building No: NA; Unit No: NA", "work_type": "New", "address": "1053 GRAHAM BEND, City of San Antonio, TX 78221", "date_issued": "2025-01-13", "valuation": 0}, {"lng": -98.569144, "lat": 29.337721, "category": "commercial", "permit_type": "Res New Building Permit", "permit_number": "RES-RBP-PMT25-36600158", "project_name": "Building No: ; Unit No: N/A", "work_type": "New", "address": "8906 PYRON PLACE, City of San Antonio, TX 78211", "date_issued": "2025-01-13", "valuation": 0}, {"lng": -98.395945, "lat": 29.383372, "category": "commercial", "permit_type": "Res New Building Permit", "permit_number": "RES-RBP-PMT25-36600162", "project_name": "Building No: ; Unit No: N/A", "work_type": "New", "address": "4103 PERRITO DR, City of San Antonio, TX 78222", "date_issued": "2025-01-13", "valuation": 0}, {"lng": -98.396172, "lat": 29.3837, "category": "commercial", "permit_type": "Res New Building Permit", "permit_number": "RES-RBP-PMT25-36600164", "project_name": "Building No: ; Unit No: N/A", "work_type": "New", "address": "4803 PLAZA CENTER, City of San Antonio, TX 78222", "date_issued": "2025-01-13", "valuation": 0}, {"lng": -98.390667, "lat": 29.275831, "category": "commercial", "permit_type": "Res New Building Permit", "permit_number": "RES-RBP-PMT25-36600165", "project_name": "Building No: 14414; Unit No: N/A", "work_type": "New", "address": "14414 STINGER HOOK, City of San Antonio, TX 78112", "date_issued": "2025-01-13", "valuation": 0}, {"lng": -98.474216, "lat": 29.289623, "category": "residential", "permit_type": "Res New Building Permit", "permit_number": "RES-RBP-PMT25-36600166", "project_name": "Building No: 13106; Unit No: N/A", "work_type": "New", "address": "13106 CLUB HOUSE BLVD, City of San Antonio, TX 78221", "date_issued": "2025-01-13", "valuation": 0}, {"lng": -98.297427, "lat": 29.45603, "category": "commercial", "permit_type": "Res New Building Permit", "permit_number": "RES-RBP-PMT25-36600120", "project_name": "Building No: ; Unit No: N/A", "work_type": "New", "address": "2907 ARABIAN WAY, City of San Antonio, TX 78109", "date_issued": "2025-01-14", "valuation": 0}, {"lng": -98.296929, "lat": 29.456092, "category": "commercial", "permit_type": "Res New Building Permit", "permit_number": "RES-RBP-PMT25-36600122", "project_name": "Building No: ; Unit No: N/A", "work_type": "New", "address": "2910 ARABIAN WAY, City of San Antonio, TX 78109", "date_issued": "2025-01-14", "valuation": 0}, {"lng": -98.486958, "lat": 29.626024, "category": "commercial", "permit_type": "Res New Building Permit", "permit_number": "RES-RBP-PMT25-36600124", "project_name": "Building No: ; Unit No: 704", "work_type": "New", "address": "20675 HUEBNER RD, City of San Antonio, TX 78258", "date_issued": "2025-01-14", "valuation": 0}, {"lng": -98.486958, "lat": 29.626024, "category": "commercial", "permit_type": "Res New Building Permit", "permit_number": "RES-RBP-PMT25-36600125", "project_name": "Building No: NA; Unit No: 702", "work_type": "New", "address": "20675 HUEBNER RD, City of San Antonio, TX 78258", "date_issued": "2025-01-14", "valuation": 0}, {"lng": -98.526385, "lat": 29.309283, "category": "commercial", "permit_type": "Res New Building Permit", "permit_number": "RES-RBP-PMT25-36600136", "project_name": "Building No: ; Unit No: N/A", "work_type": "New", "address": "10822 TWYLA RD, City of San Antonio, TX 78224", "date_issued": "2025-01-14", "valuation": 0}, {"lng": -98.528214, "lat": 29.310358, "category": "commercial", "permit_type": "Res New Building Permit", "permit_number": "RES-RBP-PMT25-36600159", "project_name": "Building No: 1347; Unit No: N/A", "work_type": "New", "address": "1347 NERIA LOOP, City of San Antonio, TX 78224", "date_issued": "2025-01-14", "valuation": 0}, {"lng": -98.631172, "lat": 29.430909, "category": "commercial", "permit_type": "Res New Building Permit", "permit_number": "RES-RBP-PMT25-36600160", "project_name": "Building No: ; Unit No: N/A", "work_type": "New", "address": "7102 SALAMANDER WAY, City of San Antonio, TX 78227", "date_issued": "2025-01-14", "valuation": 0}, {"lng": -98.632352, "lat": 29.4306, "category": "commercial", "permit_type": "Res New Building Permit", "permit_number": "RES-RBP-PMT25-36600161", "project_name": "Building No: ; Unit No: N/A", "work_type": "New", "address": "7143 SHAMROCK DOME, City of San Antonio, TX 78227", "date_issued": "2025-01-14", "valuation": 0}, {"lng": -98.483808, "lat": 29.285095, "category": "commercial", "permit_type": "Res New Building Permit", "permit_number": "RES-RBP-PMT25-36600163", "project_name": "Building No: ; Unit No: N/A", "work_type": "New", "address": "1027 GRAHAM BEND, City of San Antonio, TX 78221", "date_issued": "2025-01-14", "valuation": 0}, {"lng": -98.400532, "lat": 29.381785, "category": "commercial", "permit_type": "Res New Building Permit", "permit_number": "RES-RBP-PMT25-36600167", "project_name": "Building No: 4638; Unit No: N/A", "work_type": "New", "address": "4638 OTRA OTRA DR, City of San Antonio, TX 78222", "date_issued": "2025-01-14", "valuation": 0}, {"lng": -98.474654, "lat": 29.289324, "category": "residential", "permit_type": "Res New Building Permit", "permit_number": "RES-RBP-PMT25-36600168", "project_name": "Building No: 13119; Unit No: N/A", "work_type": "New", "address": "13119 CLUB HOUSE BLVD, City of San Antonio, TX 78221", "date_issued": "2025-01-14", "valuation": 0}, {"lng": -98.395075, "lat": 29.383725, "category": "commercial", "permit_type": "Res New Building Permit", "permit_number": "RES-RBP-PMT25-36600170", "project_name": "Building No: ; Unit No: N/A", "work_type": "New", "address": "4018 ISLAS RD, City of San Antonio, TX 78222", "date_issued": "2025-01-14", "valuation": 0}, {"lng": -98.565096, "lat": 29.314904, "category": "commercial", "permit_type": "Res New Building Permit", "permit_number": "RES-RBP-PMT25-36600171", "project_name": "Building No: ; Unit No: N/A", "work_type": "New", "address": "3382 COMANCHE CROSSING, City of San Antonio, TX 78224", "date_issued": "2025-01-14", "valuation": 0}, {"lng": -98.351498, "lat": 29.558175, "category": "commercial", "permit_type": "Res New Building Permit", "permit_number": "RES-RBP-PMT25-36600172", "project_name": "Building No: 13003; Unit No: 239", "work_type": "New", "address": "13003 TOEPPERWEIN RD, City of San Antonio, TX 78233", "date_issued": "2025-01-14", "valuation": 0}, {"lng": -98.486958, "lat": 29.626024, "category": "commercial", "permit_type": "Res New Building Permit", "permit_number": "RES-RBP-PMT25-36600173", "project_name": "Building No: ; Unit No: 707", "work_type": "New", "address": "20675 HUEBNER RD, City of San Antonio, TX 78258", "date_issued": "2025-01-14", "valuation": 0}, {"lng": -98.401042, "lat": 29.382142, "category": "commercial", "permit_type": "Res New Building Permit", "permit_number": "RES-RBP-PMT25-36600174", "project_name": "Building No: ; Unit No: N/A", "work_type": "New", "address": "4619 OTRA OTRA DR, City of San Antonio, TX 78222", "date_issued": "2025-01-14", "valuation": 0}, {"lng": -98.52767, "lat": 29.309538, "category": "commercial", "permit_type": "Res New Building Permit", "permit_number": "RES-RBP-PMT25-36600175", "project_name": "Building No: ; Unit No: N/A", "work_type": "New", "address": "10803 SOUPE COVE, City of San Antonio, TX 78224", "date_issued": "2025-01-14", "valuation": 0}, {"lng": -98.486958, "lat": 29.626024, "category": "commercial", "permit_type": "Res New Building Permit", "permit_number": "RES-RBP-PMT25-36600180", "project_name": "Building No: 701; Unit No: NA", "work_type": "New", "address": "20675 HUEBNER RD, City of San Antonio, TX 78258", "date_issued": "2025-01-14", "valuation": 0}, {"lng": -98.492184, "lat": 29.393532, "category": "commercial", "permit_type": "Comm Comm Equipment Permit", "permit_number": "COM-CEQ-PMT25-40700008", "project_name": "Minor Structures Verizon - 818886 - 681555", "work_type": "New", "address": "613 MISSION RD, City of San Antonio, TX 78210", "date_issued": "2025-01-15", "valuation": 40000.0}, {"lng": -98.35206, "lat": 29.590078, "category": "commercial", "permit_type": "Comm Retaining Wall Permit", "permit_number": "COM-RW-PMT25-41100006", "project_name": "Minor Structures - Slim Chickens", "work_type": "New", "address": "7022 N 1604 E, City of San Antonio, TX 78266", "date_issued": "2025-01-15", "valuation": 25678.0}, {"lng": -98.69256, "lat": 29.461931, "category": "commercial", "permit_type": "Comm Sitework Permit", "permit_number": "COM-SIT-PMT25-40100016", "project_name": "Site Work - Westover Hills Gas Station", "work_type": "New", "address": "10970 STATE HWY 151, City of San Antonio, TX 78251", "date_issued": "2025-01-15", "valuation": 500000.0}, {"lng": -98.288553, "lat": 29.462569, "category": "commercial", "permit_type": "Res New Building Permit", "permit_number": "RES-RBP-PMT25-36600135", "project_name": "Building No: ; Unit No: N/A", "work_type": "New", "address": "3011 SELHURST ST, City of San Antonio, TX 78109", "date_issued": "2025-01-15", "valuation": 0}, {"lng": -98.781406, "lat": 29.397096, "category": "commercial", "permit_type": "Res New Building Permit", "permit_number": "RES-RBP-PMT25-36600184", "project_name": "Building No: 3512; Unit No: N/A", "work_type": "New", "address": "3512 ROCK MILL DAM, City of San Antonio ETJ, TX 78245", "date_issued": "2025-01-15", "valuation": 0}, {"lng": -98.641294, "lat": 29.429219, "category": "commercial", "permit_type": "Res New Building Permit", "permit_number": "RES-RBP-PMT25-36600188", "project_name": "Building No: ; Unit No: NA", "work_type": "New", "address": "7738 BOHEMIAN GROVE, City of San Antonio, TX 78227", "date_issued": "2025-01-15", "valuation": 0}, {"lng": -98.525992, "lat": 29.309566, "category": "commercial", "permit_type": "Res New Building Permit", "permit_number": "RES-RBP-PMT25-36600189", "project_name": "Building No: ; Unit No: N/A", "work_type": "New", "address": "10815 SALEH CORNER, City of San Antonio, TX 78224", "date_issued": "2025-01-15", "valuation": 0}, {"lng": -98.781832, "lat": 29.397284, "category": "commercial", "permit_type": "Res New Building Permit", "permit_number": "RES-RBP-PMT25-36600191", "project_name": "Building No: NA; Unit No: NA", "work_type": "New", "address": "3418 ROCK MILL DAM, City of San Antonio ETJ, TX 78245", "date_issued": "2025-01-15", "valuation": 0}, {"lng": -98.641492, "lat": 29.429185, "category": "commercial", "permit_type": "Res New Building Permit", "permit_number": "RES-RBP-PMT25-36600193", "project_name": "Building No: ; Unit No: N/A", "work_type": "New", "address": "7742 BOHEMIAN GROVE, City of San Antonio, TX 78227", "date_issued": "2025-01-15", "valuation": 0}, {"lng": -98.593966, "lat": 29.469612, "category": "commercial", "permit_type": "Res New Building Permit", "permit_number": "RES-RBP-PMT25-36600194", "project_name": "Building No: 5514; Unit No: N/A", "work_type": "New", "address": "5514 S HORSESHOE BEND, City of San Antonio, TX 78228", "date_issued": "2025-01-15", "valuation": 0}, {"lng": -98.528283, "lat": 29.31002, "category": "commercial", "permit_type": "Res New Building Permit", "permit_number": "RES-RBP-PMT25-36600195", "project_name": "Building No: NA; Unit No: NA", "work_type": "New", "address": "10802 SIEBERN RD, City of San Antonio, TX 78224", "date_issued": "2025-01-15", "valuation": 0}, {"lng": -98.528477, "lat": 29.310364, "category": "commercial", "permit_type": "Res New Building Permit", "permit_number": "RES-RBP-PMT25-36600197", "project_name": "Building No: ; Unit No: N/A", "work_type": "New", "address": "1355 NERIA LOOP, City of San Antonio, TX 78224", "date_issued": "2025-01-15", "valuation": 0}, {"lng": -98.528359, "lat": 29.310359, "category": "commercial", "permit_type": "Res New Building Permit", "permit_number": "RES-RBP-PMT25-36600198", "project_name": "Building No: NA; Unit No: NA", "work_type": "New", "address": "1351 NERIA LOOP, City of San Antonio, TX 78224", "date_issued": "2025-01-15", "valuation": 0}, {"lng": -98.79531, "lat": 29.404875, "category": "commercial", "permit_type": "Res New Building Permit", "permit_number": "RES-RBP-PMT25-36600179", "project_name": "Building No: ; Unit No: n/a", "work_type": "New", "address": "2626 VISTABLUE LANE, City of San Antonio ETJ, TX 78245", "date_issued": "2025-01-16", "valuation": 0}, {"lng": -98.789313, "lat": 29.406705, "category": "commercial", "permit_type": "Res New Building Permit", "permit_number": "RES-RBP-PMT25-36600181", "project_name": "Building No: na; Unit No: n/a", "work_type": "New", "address": "2420 BARKEY SPRINGS, City of San Antonio ETJ, TX 78245", "date_issued": "2025-01-16", "valuation": 0}, {"lng": -98.52785, "lat": 29.309191, "category": "commercial", "permit_type": "Res New Building Permit", "permit_number": "RES-RBP-PMT25-36600182", "project_name": "Building No: 10815 Soupe Cove; Unit No: 10815 Soupe Cove", "work_type": "New", "address": "10815 SOUPE COVE, City of San Antonio, TX 78224", "date_issued": "2025-01-16", "valuation": 0}, {"lng": -98.527513, "lat": 29.309542, "category": "commercial", "permit_type": "Res New Building Permit", "permit_number": "RES-RBP-PMT25-36600183", "project_name": "Building No: ; Unit No: NA", "work_type": "New", "address": "10802 SOUPE COVE, City of San Antonio, TX 78224", "date_issued": "2025-01-16", "valuation": 0}, {"lng": -98.631179, "lat": 29.430544, "category": "commercial", "permit_type": "Res New Building Permit", "permit_number": "RES-RBP-PMT25-36600201", "project_name": "Building No: ; Unit No: N/A", "work_type": "New", "address": "7103 SHAMROCK DOME, City of San Antonio, TX 78227", "date_issued": "2025-01-16", "valuation": 0}, {"lng": -98.48825, "lat": 29.291111, "category": "commercial", "permit_type": "Res New Building Permit", "permit_number": "RES-RBP-PMT25-36600205", "project_name": "Building No: 522; Unit No: N/A", "work_type": "New", "address": "522 LEW PASS, City of San Antonio, TX 78221", "date_issued": "2025-01-16", "valuation": 0}, {"lng": -98.528611, "lat": 29.310374, "category": "commercial", "permit_type": "Res New Building Permit", "permit_number": "RES-RBP-PMT25-36600206", "project_name": "Building No: ; Unit No: NA", "work_type": "New", "address": "1359 NERIA LOOP, City of San Antonio, TX 78224", "date_issued": "2025-01-16", "valuation": 0}, {"lng": -98.631661, "lat": 29.430565, "category": "commercial", "permit_type": "Res New Building Permit", "permit_number": "RES-RBP-PMT25-36600207", "project_name": "Building No: ; Unit No: N/A", "work_type": "New", "address": "7119 SHAMROCK DOME, City of San Antonio, TX 78227", "date_issued": "2025-01-16", "valuation": 0}, {"lng": -98.383387, "lat": 29.389588, "category": "commercial", "permit_type": "Res New Building Permit", "permit_number": "RES-RBP-PMT25-36600208", "project_name": "Building No: ; Unit No: N/A", "work_type": "New", "address": "5238 THISTLE PLACE, City of San Antonio, TX 78222", "date_issued": "2025-01-16", "valuation": 0}, {"lng": -98.640333, "lat": 29.429246, "category": "commercial", "permit_type": "Res New Building Permit", "permit_number": "RES-RBP-PMT25-36600209", "project_name": "Building No: ; Unit No: N/A", "work_type": "New", "address": "7710 BOHEMIAN GROVE, City of San Antonio, TX 78227", "date_issued": "2025-01-16", "valuation": 0}, {"lng": -98.639888, "lat": 29.429241, "category": "commercial", "permit_type": "Res New Building Permit", "permit_number": "RES-RBP-PMT25-36600210", "project_name": "Building No: ; Unit No: N/A", "work_type": "New", "address": "7658 BOHEMIAN GROVE, City of San Antonio, TX 78227", "date_issued": "2025-01-16", "valuation": 0}, {"lng": -98.486958, "lat": 29.626024, "category": "commercial", "permit_type": "Res New Building Permit", "permit_number": "RES-RBP-PMT25-36600211", "project_name": "Building No: 20675; Unit No: 706", "work_type": "New", "address": "20675 HUEBNER RD, City of San Antonio, TX 78258", "date_issued": "2025-01-16", "valuation": 0}, {"lng": -98.608378, "lat": 29.295744, "category": "commercial", "permit_type": "Res New Building Permit", "permit_number": "RES-RBP-PMT25-36600212", "project_name": "Building No: ; Unit No: n/a", "work_type": "New", "address": "5222 CLARENCE FLD, City of San Antonio, TX 78073", "date_issued": "2025-01-16", "valuation": 0}, {"lng": -98.631788, "lat": 29.430565, "category": "commercial", "permit_type": "Res New Building Permit", "permit_number": "RES-RBP-PMT25-36600213", "project_name": "Building No: ; Unit No: NA", "work_type": "New", "address": "7123 SHAMROCK DOME, City of San Antonio, TX 78227", "date_issued": "2025-01-16", "valuation": 0}, {"lng": -98.598318, "lat": 29.638632, "category": "commercial", "permit_type": "Res New Building Permit", "permit_number": "RES-RBP-PMT25-36600214", "project_name": "Building No: ; Unit No: N/A", "work_type": "New", "address": "21310 MEDITATION LANE, City of San Antonio, TX 78257", "date_issued": "2025-01-16", "valuation": 0}, {"lng": -98.631316, "lat": 29.430549, "category": "commercial", "permit_type": "Res New Building Permit", "permit_number": "RES-RBP-PMT25-36600215", "project_name": "Building No: ; Unit No: N/A", "work_type": "New", "address": "7107 SHAMROCK DOME, City of San Antonio, TX 78227", "date_issued": "2025-01-16", "valuation": 0}, {"lng": -98.631892, "lat": 29.430565, "category": "commercial", "permit_type": "Res New Building Permit", "permit_number": "RES-RBP-PMT25-36600202", "project_name": "Building No: ; Unit No: NA", "work_type": "New", "address": "7127 SHAMROCK DOME, City of San Antonio, TX 78227", "date_issued": "2025-01-17", "valuation": 0}, {"lng": -98.355935, "lat": 29.584215, "category": "commercial", "permit_type": "Res New Building Permit", "permit_number": "RES-RBP-PMT25-36600203", "project_name": "Building No: ; Unit No: N/A", "work_type": "New", "address": "7019 COMANCHE CAVE, City of San Antonio, TX 78233", "date_issued": "2025-01-17", "valuation": 0}, {"lng": -98.356842, "lat": 29.579722, "category": "commercial", "permit_type": "Res New Building Permit", "permit_number": "RES-RBP-PMT25-36600204", "project_name": "Building No: ; Unit No: N/A", "work_type": "New", "address": "6826 COMANCHE POST, City of San Antonio, TX 78247", "date_issued": "2025-01-17", "valuation": 0}, {"lng": -98.488345, "lat": 29.291477, "category": "commercial", "permit_type": "Res New Building Permit", "permit_number": "RES-RBP-PMT25-36600216", "project_name": "Building No: ; Unit No: N/A", "work_type": "New", "address": "530 LEW PASS, City of San Antonio, TX 78221", "date_issued": "2025-01-17", "valuation": 0}, {"lng": -98.6396, "lat": 29.429223, "category": "commercial", "permit_type": "Res New Building Permit", "permit_number": "RES-RBP-PMT25-36600217", "project_name": "Building No: ; Unit No: N/A", "work_type": "New", "address": "7650 BOHEMIAN GROVE, City of San Antonio, TX 78227", "date_issued": "2025-01-17", "valuation": 0}, {"lng": -98.639764, "lat": 29.429228, "category": "commercial", "permit_type": "Res New Building Permit", "permit_number": "RES-RBP-PMT25-36600218", "project_name": "Building No: ; Unit No: N/A", "work_type": "New", "address": "7654 BOHEMIAN GROVE, City of San Antonio, TX 78227", "date_issued": "2025-01-17", "valuation": 0}, {"lng": -98.487395, "lat": 29.327411, "category": "commercial", "permit_type": "Res New Building Permit", "permit_number": "RES-RBP-PMT25-36600219", "project_name": "Building No: ; Unit No: N/A", "work_type": "New", "address": "9510 ATLATL AVE, City of San Antonio, TX 78221", "date_issued": "2025-01-17", "valuation": 0}, {"lng": -98.626356, "lat": 29.670436, "category": "commercial", "permit_type": "Res New Building Permit", "permit_number": "RES-RBP-PMT25-36600220", "project_name": "Building No: ; Unit No: N/A", "work_type": "New", "address": "7006 BLUFF RUN, City of San Antonio, TX 78257", "date_issued": "2025-01-17", "valuation": 0}, {"lng": -98.433011, "lat": 29.415337, "category": "commercial", "permit_type": "Res New Building Permit", "permit_number": "RES-RBP-PMT25-36600222", "project_name": "Building No: NA; Unit No: NA", "work_type": "New", "address": "311 CORLISS, City of San Antonio, TX 78220", "date_issued": "2025-01-17", "valuation": 0}, {"lng": -98.39589, "lat": 29.384489, "category": "commercial", "permit_type": "Res New Building Permit", "permit_number": "RES-RBP-PMT25-36600224", "project_name": "Building No: ; Unit No: N/A", "work_type": "New", "address": "4767 PICO PICO ST, City of San Antonio, TX 78222", "date_issued": "2025-01-17", "valuation": 0}, {"lng": -98.598596, "lat": 29.638406, "category": "commercial", "permit_type": "Res New Building Permit", "permit_number": "RES-RBP-PMT25-36600226", "project_name": "Building No: ; Unit No: N/A", "work_type": "New", "address": "21302 MEDITATION LANE, City of San Antonio, TX 78257", "date_issued": "2025-01-17", "valuation": 0}, {"lng": -98.537066, "lat": 29.411711, "category": "commercial", "permit_type": "Comm Shade Structure Permit", "permit_number": "COM-SHD-PMT25-41200006", "project_name": "Minor Structures - Benavides Park", "work_type": "New", "address": "1500 SALTILLO ST, City of San Antonio, TX 78207", "date_issued": "2025-01-21", "valuation": 19000.0}, {"lng": -98.528739, "lat": 29.310384, "category": "commercial", "permit_type": "Res New Building Permit", "permit_number": "RES-RBP-PMT25-36600221", "project_name": "Building No: ; Unit No: NA", "work_type": "New", "address": "1363 NERIA LOOP, City of San Antonio, TX 78224", "date_issued": "2025-01-21", "valuation": 0}, {"lng": -98.56922, "lat": 29.33801, "category": "commercial", "permit_type": "Res New Building Permit", "permit_number": "RES-RBP-PMT25-36600223", "project_name": "Building No: ; Unit No: NA", "work_type": "New", "address": "8830 PYRON PLACE, City of San Antonio, TX 78211", "date_issued": "2025-01-21", "valuation": 0}, {"lng": -98.488513, "lat": 29.290503, "category": "commercial", "permit_type": "Res New Building Permit", "permit_number": "RES-RBP-PMT25-36600227", "project_name": "Building No: ; Unit No: N/A", "work_type": "New", "address": "507 LEW PASS, City of San Antonio, TX 78221", "date_issued": "2025-01-21", "valuation": 0}, {"lng": -98.64017, "lat": 29.429237, "category": "commercial", "permit_type": "Res New Building Permit", "permit_number": "RES-RBP-PMT25-36600228", "project_name": "Building No: ; Unit No: NA", "work_type": "New", "address": "7706 BOHEMIAN GROVE, City of San Antonio, TX 78227", "date_issued": "2025-01-21", "valuation": 0}, {"lng": -98.640031, "lat": 29.429233, "category": "commercial", "permit_type": "Res New Building Permit", "permit_number": "RES-RBP-PMT25-36600229", "project_name": "Building No: 7702; Unit No: N/A", "work_type": "New", "address": "7702 BOHEMIAN GROVE, City of San Antonio, TX 78227", "date_issued": "2025-01-21", "valuation": 0}, {"lng": -98.571859, "lat": 29.337911, "category": "commercial", "permit_type": "Res New Building Permit", "permit_number": "RES-RBP-PMT25-36600232", "project_name": "Building No: ; Unit No: N/A", "work_type": "New", "address": "3842 BATES PLACE, City of San Antonio, TX 78211", "date_issued": "2025-01-21", "valuation": 0}, {"lng": -98.48792, "lat": 29.329166, "category": "commercial", "permit_type": "Res New Building Permit", "permit_number": "RES-RBP-PMT25-36600235", "project_name": "Building No: ; Unit No: N/A", "work_type": "New", "address": "9411 BIRCH BARK BEND, City of San Antonio, TX 78221", "date_issued": "2025-01-21", "valuation": 0}, {"lng": -98.642318, "lat": 29.346993, "category": "commercial", "permit_type": "Res New Building Permit", "permit_number": "RES-RBP-PMT25-36600236", "project_name": "Building No: ; Unit No: N/A", "work_type": "New", "address": "7430 PERSEUS BROOK, City of San Antonio, TX 78252", "date_issued": "2025-01-21", "valuation": 0}, {"lng": -98.485158, "lat": 29.424173, "category": "commercial", "permit_type": "Comm Comm Equipment Permit", "permit_number": "COM-CEQ-PMT25-40700009", "project_name": "Minor Structures Verizon- Rivercenter Mall", "work_type": "New", "address": "849 E COMMERCE ST, City of San Antonio, TX 78205", "date_issued": "2025-01-22", "valuation": 25000.0}, {"lng": -98.794603, "lat": 29.404824, "category": "commercial", "permit_type": "Res New Building Permit", "permit_number": "RES-RBP-PMT25-36600178", "project_name": "Building No: ; Unit No: n/a", "work_type": "New", "address": "2646 VISTABLUE LANE, City of San Antonio ETJ, TX 78245", "date_issued": "2025-01-22", "valuation": 0}, {"lng": -98.51928, "lat": 29.422519, "category": "commercial", "permit_type": "Res New Building Permit", "permit_number": "RES-RBP-PMT25-36600234", "project_name": "Building No: ; Unit No: N/A", "work_type": "New", "address": "516 S NUECES, City of San Antonio, TX 78207", "date_issued": "2025-01-22", "valuation": 0}, {"lng": -98.52825, "lat": 29.309785, "category": "commercial", "permit_type": "Res New Building Permit", "permit_number": "RES-RBP-PMT25-36600238", "project_name": "Building No: ; Unit No: NA", "work_type": "New", "address": "10810 SIEBERN RD, City of San Antonio, TX 78224", "date_issued": "2025-01-22", "valuation": 0}, {"lng": -98.376413, "lat": 29.376216, "category": "commercial", "permit_type": "Res New Building Permit", "permit_number": "RES-RBP-PMT25-36600239", "project_name": "Building No: 4907 Topaz Bend; Unit No: 9", "work_type": "New", "address": "4907 TOPAZ BEND, City of San Antonio, TX 78222", "date_issued": "2025-01-22", "valuation": 0}, {"lng": -98.392489, "lat": 29.275108, "category": "commercial", "permit_type": "Res New Building Permit", "permit_number": "RES-RBP-PMT25-36600240", "project_name": "Building No: 5042; Unit No: N/A", "work_type": "New", "address": "5042 BIG OAK RUN, City of San Antonio, TX 78112", "date_issued": "2025-01-22", "valuation": 0}, {"lng": -98.528857, "lat": 29.310375, "category": "commercial", "permit_type": "Res New Building Permit", "permit_number": "RES-RBP-PMT25-36600241", "project_name": "Building No: ; Unit No: N/A", "work_type": "New", "address": "1367 NERIA LOOP, City of San Antonio, TX 78224", "date_issued": "2025-01-22", "valuation": 0}, {"lng": -98.487934, "lat": 29.329042, "category": "commercial", "permit_type": "Res New Building Permit", "permit_number": "RES-RBP-PMT25-36600242", "project_name": "Building No: ; Unit No: N/A", "work_type": "New", "address": "9415 BIRCH BARK BEND, City of San Antonio, TX 78221", "date_issued": "2025-01-22", "valuation": 0}, {"lng": -98.392676, "lat": 29.275237, "category": "commercial", "permit_type": "Res New Building Permit", "permit_number": "RES-RBP-PMT25-36600243", "project_name": "Building No: ; Unit No: N/A", "work_type": "New", "address": "5034 BIG OAK RUN, City of San Antonio, TX 78112", "date_issued": "2025-01-22", "valuation": 0}, {"lng": -98.482913, "lat": 29.285269, "category": "commercial", "permit_type": "Res New Building Permit", "permit_number": "RES-RBP-PMT25-36600244", "project_name": "Building No: ; Unit No: NA", "work_type": "New", "address": "1058 GRAHAM BEND, City of San Antonio, TX 78221", "date_issued": "2025-01-22", "valuation": 0}, {"lng": -98.482986, "lat": 29.285182, "category": "commercial", "permit_type": "Res New Building Permit", "permit_number": "RES-RBP-PMT25-36600245", "project_name": "Building No: 1054; Unit No: N/A", "work_type": "New", "address": "1054 GRAHAM BEND, City of San Antonio, TX 78221", "date_issued": "2025-01-22", "valuation": 0}, {"lng": -98.396676, "lat": 29.384488, "category": "commercial", "permit_type": "Res New Building Permit", "permit_number": "RES-RBP-PMT25-36600248", "project_name": "Building No: ; Unit No: N/A", "work_type": "New", "address": "4743 PICO PICO ST, City of San Antonio, TX 78222", "date_issued": "2025-01-22", "valuation": 0}, {"lng": -98.483055, "lat": 29.2851, "category": "commercial", "permit_type": "Res New Building Permit", "permit_number": "RES-RBP-PMT25-36600251", "project_name": "Building No: NA; Unit No: NA", "work_type": "New", "address": "1050 GRAHAM BEND, City of San Antonio, TX 78221", "date_issued": "2025-01-22", "valuation": 0}, {"lng": -98.26969, "lat": 29.464725, "category": "commercial", "permit_type": "Res New Building Permit", "permit_number": "RES-RBP-PMT25-36600252", "project_name": "Building No: ; Unit No: N/A", "work_type": "New", "address": "3330 GINGHAM POINT, City of San Antonio, TX 78109", "date_issued": "2025-01-22", "valuation": 0}, {"lng": -98.401268, "lat": 29.382134, "category": "commercial", "permit_type": "Res New Building Permit", "permit_number": "RES-RBP-PMT25-36600253", "project_name": "Building No: ; Unit No: N/A", "work_type": "New", "address": "4611 OTRA OTRA DR, City of San Antonio, TX 78222", "date_issued": "2025-01-22", "valuation": 0}, {"lng": -98.642745, "lat": 29.347003, "category": "commercial", "permit_type": "Res New Building Permit", "permit_number": "RES-RBP-PMT25-36600255", "project_name": "Building No: NA; Unit No: N/A", "work_type": "New", "address": "7502 PERSEUS BROOK, City of San Antonio, TX 78252", "date_issued": "2025-01-22", "valuation": 0}, {"lng": -98.26997, "lat": 29.464299, "category": "commercial", "permit_type": "Res New Building Permit", "permit_number": "RES-RBP-PMT25-36600256", "project_name": "Building No: ; Unit No: N/A", "work_type": "New", "address": "3314 GINGHAM POINT, City of San Antonio, TX 78109", "date_issued": "2025-01-22", "valuation": 0}, {"lng": -98.404821, "lat": 29.353071, "category": "commercial", "permit_type": "Res New Building Permit", "permit_number": "RES-RBP-PMT25-36600257", "project_name": "Building No: NA; Unit No: NA", "work_type": "New", "address": "7218 SALADO CREEK, City of San Antonio, TX 78223", "date_issued": "2025-01-22", "valuation": 0}, {"lng": -98.395812, "lat": 29.383719, "category": "commercial", "permit_type": "Res New Building Permit", "permit_number": "RES-RBP-PMT25-36600260", "project_name": "Building No: ; Unit No: N/A", "work_type": "New", "address": "4815 PLAZA CENTER, City of San Antonio, TX 78222", "date_issued": "2025-01-22", "valuation": 0}, {"lng": -98.605146, "lat": 29.587197, "category": "commercial", "permit_type": "Comm Monument Permit", "permit_number": "COM-MON-PMT25-40900001", "project_name": "SPC-Special Projects-VALERO HQ-\"6\" BUILDING-PHARMACY", "work_type": "New", "address": "1 VALERO WAY, City of San Antonio, TX 78249", "date_issued": "2025-01-23", "valuation": 33200.0}, {"lng": -98.402731, "lat": 29.424417, "category": "commercial", "permit_type": "Comm Sitework Permit", "permit_number": "COM-SIT-PMT24-40100524", "project_name": "Complex Plans - Dollar General Store #30408 - San Antonio (E. Houston St.)", "work_type": "New", "address": "4607 E HOUSTON ST, City of San Antonio, TX 78220", "date_issued": "2025-01-23", "valuation": 920616.0}, {"lng": -98.791456, "lat": 29.406089, "category": "commercial", "permit_type": "Res New Building Permit", "permit_number": "RES-RBP-PMT25-36600247", "project_name": "Building No: ; Unit No: n/a", "work_type": "New", "address": "2443 TINKERTON, City of San Antonio ETJ, TX 78245", "date_issued": "2025-01-23", "valuation": 0}, {"lng": -98.374868, "lat": 29.375692, "category": "commercial", "permit_type": "Res New Building Permit", "permit_number": "RES-RBP-PMT25-36600249", "project_name": "Building No: ; Unit No: N/A", "work_type": "New", "address": "4946 BLUE RANCH, City of San Antonio, TX 78222", "date_issued": "2025-01-23", "valuation": 0}, {"lng": -98.595416, "lat": 29.300393, "category": "commercial", "permit_type": "Res New Building Permit", "permit_number": "RES-RBP-PMT25-36600250", "project_name": "Building No: ; Unit No: N/A", "work_type": "New", "address": "4726 LEGACY TRAIL, City of San Antonio, TX 78073", "date_issued": "2025-01-23", "valuation": 0}, {"lng": -98.269594, "lat": 29.464853, "category": "commercial", "permit_type": "Res New Building Permit", "permit_number": "RES-RBP-PMT25-36600258", "project_name": "Building No: ; Unit No: NA", "work_type": "New", "address": "3334 GINGHAM POINT, City of San Antonio, TX 78109", "date_issued": "2025-01-23", "valuation": 0}, {"lng": -98.642615, "lat": 29.346993, "category": "commercial", "permit_type": "Res New Building Permit", "permit_number": "RES-RBP-PMT25-36600259", "project_name": "Building No: 7438; Unit No: N/A", "work_type": "New", "address": "7438 PERSEUS BROOK, City of San Antonio, TX 78252", "date_issued": "2025-01-23", "valuation": 0}, {"lng": -98.572542, "lat": 29.337961, "category": "commercial", "permit_type": "Res New Building Permit", "permit_number": "RES-RBP-PMT25-36600261", "project_name": "Building No: ; Unit No: N/A", "work_type": "New", "address": "3922 BATES PLACE, City of San Antonio, TX 78211", "date_issued": "2025-01-23", "valuation": 0}, {"lng": -98.488114, "lat": 29.291715, "category": "commercial", "permit_type": "Res New Building Permit", "permit_number": "RES-RBP-PMT25-36600262", "project_name": "Building No: ; Unit No: N/A", "work_type": "New", "address": "12007 KITE BEND, City of San Antonio, TX 78221", "date_issued": "2025-01-23", "valuation": 0}, {"lng": -98.639472, "lat": 29.429209, "category": "commercial", "permit_type": "Res New Building Permit", "permit_number": "RES-RBP-PMT25-36600263", "project_name": "Building No: 7646; Unit No: N/A", "work_type": "New", "address": "7646 BOHEMIAN GROVE, City of San Antonio, TX 78227", "date_issued": "2025-01-23", "valuation": 0}, {"lng": -98.52898, "lat": 29.310371, "category": "commercial", "permit_type": "Res New Building Permit", "permit_number": "RES-RBP-PMT25-36600264", "project_name": "Building No: ; Unit No: NA", "work_type": "New", "address": "1371 NERIA LOOP, City of San Antonio, TX 78224", "date_issued": "2025-01-23", "valuation": 0}, {"lng": -98.642464, "lat": 29.346993, "category": "commercial", "permit_type": "Res New Building Permit", "permit_number": "RES-RBP-PMT25-36600265", "project_name": "Building No: ; Unit No: N/A", "work_type": "New", "address": "7434 PERSEUS BROOK, City of San Antonio, TX 78252", "date_issued": "2025-01-23", "valuation": 0}, {"lng": -98.631437, "lat": 29.430555, "category": "commercial", "permit_type": "Res New Building Permit", "permit_number": "RES-RBP-PMT25-36600266", "project_name": "Building No: ; Unit No: N/A", "work_type": "New", "address": "7111 SHAMROCK DOME, City of San Antonio, TX 78227", "date_issued": "2025-01-23", "valuation": 0}, {"lng": -98.392376, "lat": 29.27508, "category": "commercial", "permit_type": "Res New Building Permit", "permit_number": "RES-RBP-PMT25-36600267", "project_name": "Building No: ; Unit No: N/A", "work_type": "New", "address": "5102 BIG OAK RUN, City of San Antonio, TX 78112", "date_issued": "2025-01-23", "valuation": 0}, {"lng": -98.48793, "lat": 29.328923, "category": "commercial", "permit_type": "Res New Building Permit", "permit_number": "RES-RBP-PMT25-36600268", "project_name": "Building No: 9419; Unit No: N/A", "work_type": "New", "address": "9419 BIRCH BARK BEND, City of San Antonio, TX 78221", "date_issued": "2025-01-23", "valuation": 0}, {"lng": -98.392585, "lat": 29.275189, "category": "commercial", "permit_type": "Res New Building Permit", "permit_number": "RES-RBP-PMT25-36600270", "project_name": "Building No: ; Unit No: N/A", "work_type": "New", "address": "5038 BIG OAK RUN, City of San Antonio, TX 78112", "date_issued": "2025-01-23", "valuation": 0}, {"lng": -98.632232, "lat": 29.430605, "category": "commercial", "permit_type": "Res New Building Permit", "permit_number": "RES-RBP-PMT25-36600271", "project_name": "Building No: ; Unit No: N/A", "work_type": "New", "address": "7139 SHAMROCK DOME, City of San Antonio, TX 78227", "date_issued": "2025-01-23", "valuation": 0}, {"lng": -98.643296, "lat": 29.346981, "category": "commercial", "permit_type": "Res New Building Permit", "permit_number": "RES-RBP-PMT25-36600272", "project_name": "Building No: ; Unit No: N/A", "work_type": "New", "address": "7518 PERSEUS BROOK, City of San Antonio, TX 78252", "date_issued": "2025-01-23", "valuation": 0}, {"lng": -98.482024, "lat": 29.411552, "category": "commercial", "permit_type": "Res New Building Permit", "permit_number": "RES-RBP-PMT25-36600277", "project_name": "Building No: 507; Unit No: NA", "work_type": "New", "address": "507 BURRUS PLACE, City of San Antonio, TX 78210", "date_issued": "2025-01-23", "valuation": 0}, {"lng": -98.362987, "lat": 29.473454, "category": "commercial", "permit_type": "Comm Shade Structure Permit", "permit_number": "COM-SHD-PMT25-41200009", "project_name": "JISD-Paschall ES - Canopy", "work_type": "New", "address": "6351 LAKEVIEW DR, City of San Antonio, TX 78244", "date_issued": "2025-01-24", "valuation": 12765.0}, {"lng": -98.47933, "lat": 29.440196, "category": "commercial", "permit_type": "Comm Sitework Permit", "permit_number": "COM-SIT-PMT25-40100038", "project_name": "SPL Site Work - Newel Lot - Entry Gate", "work_type": "New", "address": "306 NEWELL, City of San Antonio, TX 78215", "date_issued": "2025-01-24", "valuation": 15000.0}, {"lng": -98.513026, "lat": 29.445203, "category": "commercial", "permit_type": "Res New Building Permit", "permit_number": "RES-RBP-PMT25-36600246", "project_name": "Building No: 207; Unit No: 101 &102", "work_type": "New", "address": "207 MERIDIAN AVE, City of San Antonio, TX 78201", "date_issued": "2025-01-24", "valuation": 0}, {"lng": -98.285947, "lat": 29.46252, "category": "commercial", "permit_type": "Res New Building Permit", "permit_number": "RES-RBP-PMT25-36600269", "project_name": "Building No: ; Unit No: N/A", "work_type": "New", "address": "10335 WHITE HART LN, City of San Antonio, TX 78109", "date_issued": "2025-01-24", "valuation": 0}, {"lng": -98.569086, "lat": 29.337613, "category": "commercial", "permit_type": "Res New Building Permit", "permit_number": "RES-RBP-PMT25-36600273", "project_name": "Building No: ; Unit No: NA", "work_type": "New", "address": "8910 PYRON PLACE, City of San Antonio, TX 78211", "date_issued": "2025-01-24", "valuation": 0}, {"lng": -98.631552, "lat": 29.43055, "category": "commercial", "permit_type": "Res New Building Permit", "permit_number": "RES-RBP-PMT25-36600274", "project_name": "Building No: 7115; Unit No: N/A", "work_type": "New", "address": "7115 SHAMROCK DOME, City of San Antonio, TX 78227", "date_issued": "2025-01-24", "valuation": 0}, {"lng": -98.639343, "lat": 29.429218, "category": "commercial", "permit_type": "Res New Building Permit", "permit_number": "RES-RBP-PMT25-36600275", "project_name": "Building No: ; Unit No: N/A", "work_type": "New", "address": "7642 BOHEMIAN GROVE, City of San Antonio, TX 78227", "date_issued": "2025-01-24", "valuation": 0}, {"lng": -98.64301, "lat": 29.346999, "category": "commercial", "permit_type": "Res New Building Permit", "permit_number": "RES-RBP-PMT25-36600279", "project_name": "Building No: ; Unit No: N/A", "work_type": "New", "address": "7510 PERSEUS BROOK, City of San Antonio, TX 78252", "date_issued": "2025-01-24", "valuation": 0}, {"lng": -98.642864, "lat": 29.346985, "category": "commercial", "permit_type": "Res New Building Permit", "permit_number": "RES-RBP-PMT25-36600280", "project_name": "Building No: ; Unit No: N/A", "work_type": "New", "address": "7506 PERSEUS BROOK, City of San Antonio, TX 78252", "date_issued": "2025-01-24", "valuation": 0}, {"lng": -98.64315, "lat": 29.346995, "category": "commercial", "permit_type": "Res New Building Permit", "permit_number": "RES-RBP-PMT25-36600281", "project_name": "Building No: ; Unit No: N/A", "work_type": "New", "address": "7514 PERSEUS BROOK, City of San Antonio, TX 78252", "date_issued": "2025-01-24", "valuation": 0}, {"lng": -98.374859, "lat": 29.375778, "category": "commercial", "permit_type": "Res New Building Permit", "permit_number": "RES-RBP-PMT25-36600282", "project_name": "Building No: ; Unit No: N/A", "work_type": "New", "address": "4942 BLUE RANCH, City of San Antonio, TX 78222", "date_issued": "2025-01-24", "valuation": 0}, {"lng": -98.617921, "lat": 29.307174, "category": "commercial", "permit_type": "Res New Building Permit", "permit_number": "RES-RBP-PMT25-36600283", "project_name": "Building No: 5907; Unit No: N/A", "work_type": "New", "address": "5907 SINGING TRAIL, City of San Antonio, TX 78073", "date_issued": "2025-01-24", "valuation": 0}, {"lng": -98.39096, "lat": 29.276177, "category": "commercial", "permit_type": "Res New Building Permit", "permit_number": "RES-RBP-PMT25-36600284", "project_name": "Building No: ; Unit No: N/A", "work_type": "New", "address": "14411 STINGER HOOK, City of San Antonio, TX 78112", "date_issued": "2025-01-24", "valuation": 0}, {"lng": -98.639189, "lat": 29.429239, "category": "commercial", "permit_type": "Res New Building Permit", "permit_number": "RES-RBP-PMT25-36600285", "project_name": "Building No: ; Unit No: NA", "work_type": "New", "address": "7638 BOHEMIAN GROVE, City of San Antonio, TX 78227", "date_issued": "2025-01-24", "valuation": 0}, {"lng": -98.569391, "lat": 29.336842, "category": "commercial", "permit_type": "Res New Building Permit", "permit_number": "RES-RBP-PMT25-36600287", "project_name": "Building No: ; Unit No: N/A", "work_type": "New", "address": "3706 TERRELL TRACE, City of San Antonio, TX 78211", "date_issued": "2025-01-24", "valuation": 0}, {"lng": -98.643437, "lat": 29.346996, "category": "commercial", "permit_type": "Res New Building Permit", "permit_number": "RES-RBP-PMT25-36600288", "project_name": "Building No: 7522; Unit No: N/A", "work_type": "New", "address": "7522 PERSEUS BROOK, City of San Antonio, TX 78252", "date_issued": "2025-01-24", "valuation": 0}, {"lng": -98.275288, "lat": 29.45603, "category": "commercial", "permit_type": "Res New Building Permit", "permit_number": "RES-RBP-PMT25-36600289", "project_name": "Building No: ; Unit No: n/a", "work_type": "New", "address": "2814 FORSYTH CANYON, City of San Antonio, TX 78109", "date_issued": "2025-01-24", "valuation": 0}, {"lng": -98.643604, "lat": 29.346958, "category": "commercial", "permit_type": "Res New Building Permit", "permit_number": "RES-RBP-PMT25-36600290", "project_name": "Building No: ; Unit No: N/A", "work_type": "New", "address": "7526 PERSEUS BROOK, City of San Antonio, TX 78252", "date_issued": "2025-01-24", "valuation": 0}, {"lng": -98.392226, "lat": 29.275885, "category": "commercial", "permit_type": "Res New Building Permit", "permit_number": "RES-RBP-PMT25-36600292", "project_name": "Building No: ; Unit No: N/A", "work_type": "New", "address": "14451 RIBBON TAIL, City of San Antonio, TX 78112", "date_issued": "2025-01-26", "valuation": 0}, {"lng": -98.474284, "lat": 29.28816, "category": "residential", "permit_type": "Res New Building Permit", "permit_number": "RES-RBP-PMT25-36600294", "project_name": "Building No: ; Unit No: N/A", "work_type": "New", "address": "13226 CLUB HOUSE BLVD, City of San Antonio, TX 78221", "date_issued": "2025-01-26", "valuation": 0}, {"lng": -98.47422, "lat": 29.289865, "category": "residential", "permit_type": "Res New Building Permit", "permit_number": "RES-RBP-PMT25-36600296", "project_name": "Building No: ; Unit No: N/A", "work_type": "New", "address": "13030 CLUB HOUSE BLVD, City of San Antonio, TX 78221", "date_issued": "2025-01-26", "valuation": 0}, {"lng": -98.487486, "lat": 29.328095, "category": "commercial", "permit_type": "Res New Building Permit", "permit_number": "RES-RBP-PMT25-36600297", "project_name": "Building No: ; Unit No: N/A", "work_type": "New", "address": "9323 HAMMERSTONE DR, City of San Antonio, TX 78221", "date_issued": "2025-01-26", "valuation": 0}, {"lng": -98.662504, "lat": 29.56373, "category": "commercial", "permit_type": "Comm Comm Equipment Permit", "permit_number": "COM-CEQ-PMT25-40700010", "project_name": "Minor Plans - NORTH_WIND_RANCH", "work_type": "New", "address": "13307 WESTERN OAK, City of San Antonio, TX 78023", "date_issued": "2025-01-27", "valuation": 47700.0}, {"lng": -98.650302, "lat": 29.431456, "category": "commercial", "permit_type": "Comm Comm Equipment Permit", "permit_number": "COM-CEQ-PMT25-40700011", "project_name": "Minor Structures STOTZER", "work_type": "New", "address": "611 SW 410, City of San Antonio, TX 78227", "date_issued": "2025-01-27", "valuation": 5000.0}, {"lng": -98.57229, "lat": 29.507186, "category": "commercial", "permit_type": "Comm Comm Equipment Permit", "permit_number": "COM-CEQ-PMT25-40700012", "project_name": "Minor Structures  FLOYD CURL", "work_type": "New", "address": "7700 FLOYD CURL, City of San Antonio, TX 78229", "date_issued": "2025-01-27", "valuation": 5000.0}, {"lng": -98.578748, "lat": 29.520544, "category": "commercial", "permit_type": "Comm Sitework Permit", "permit_number": "COM-SIT-PMT25-40100039", "project_name": "School Site-NISD-Holmgreen Ctr Paving Upgrades", "work_type": "New", "address": "4646 HAMILTON WOLFE, City of San Antonio, TX 78229", "date_issued": "2025-01-27", "valuation": 48767.0}, {"lng": -98.535384, "lat": 29.325123, "category": "commercial", "permit_type": "Res New Building Permit", "permit_number": "RES-RBP-PMT25-36600254", "project_name": "Building No: ; Unit No: N/A", "work_type": "New", "address": "1202 W VILLARET BLVD, City of San Antonio, TX 78224", "date_issued": "2025-01-27", "valuation": 0}, {"lng": -98.642172, "lat": 29.346983, "category": "commercial", "permit_type": "Res New Building Permit", "permit_number": "RES-RBP-PMT25-36600293", "project_name": "Building No: ; Unit No: N/A", "work_type": "New", "address": "7426 PERSEUS BROOK, City of San Antonio, TX 78252", "date_issued": "2025-01-27", "valuation": 0}, {"lng": -98.489851, "lat": 29.327593, "category": "commercial", "permit_type": "Res New Building Permit", "permit_number": "RES-RBP-PMT25-36600298", "project_name": "Building No: 9510; Unit No: N/A", "work_type": "New", "address": "9510 REINHARTZ WAY, City of San Antonio, TX 78221", "date_issued": "2025-01-27", "valuation": 0}, {"lng": -98.488748, "lat": 29.326669, "category": "commercial", "permit_type": "Res New Building Permit", "permit_number": "RES-RBP-PMT25-36600299", "project_name": "Building No: 9515; Unit No: N/A", "work_type": "New", "address": "9515 WHITETAIL RUN, City of San Antonio, TX 78221", "date_issued": "2025-01-27", "valuation": 0}, {"lng": -98.395079, "lat": 29.383831, "category": "commercial", "permit_type": "Res New Building Permit", "permit_number": "RES-RBP-PMT25-36600300", "project_name": "Building No: 4014; Unit No: N/A", "work_type": "New", "address": "4014 ISLAS RD, City of San Antonio, TX 78222", "date_issued": "2025-01-27", "valuation": 0}, {"lng": -98.395505, "lat": 29.383943, "category": "commercial", "permit_type": "Res New Building Permit", "permit_number": "RES-RBP-PMT25-36600302", "project_name": "Building No: ; Unit No: N/A", "work_type": "New", "address": "4011 ISLAS RD, City of San Antonio, TX 78222", "date_issued": "2025-01-27", "valuation": 0}, {"lng": -98.589148, "lat": 29.582958, "category": "commercial", "permit_type": "Res New Building Permit", "permit_number": "RES-RBP-PMT25-36600305", "project_name": "Building No: ; Unit No: 809", "work_type": "New", "address": "14839 VANCE JACKSON, City of San Antonio, TX 78249", "date_issued": "2025-01-27", "valuation": 0}, {"lng": -98.538345, "lat": 29.555235, "category": "commercial", "permit_type": "Res New Building Permit", "permit_number": "RES-RBP-PMT25-36600306", "project_name": "Building No: 75; Unit No: N/A", "work_type": "New", "address": "75 PERCIVAL, City of San Antonio, TX 78230", "date_issued": "2025-01-27", "valuation": 0}, {"lng": -98.589148, "lat": 29.582958, "category": "commercial", "permit_type": "Res New Building Permit", "permit_number": "RES-RBP-PMT25-36600312", "project_name": "Building No: ; Unit No: 810", "work_type": "New", "address": "14839 VANCE JACKSON, City of San Antonio, TX 78249", "date_issued": "2025-01-27", "valuation": 0}, {"lng": -98.395111, "lat": 29.384167, "category": "commercial", "permit_type": "Res New Building Permit", "permit_number": "RES-RBP-PMT25-36600316", "project_name": "Building No: ; Unit No: N/A", "work_type": "New", "address": "4002 ISLAS RD, City of San Antonio, TX 78222", "date_issued": "2025-01-27", "valuation": 0}, {"lng": -98.484603, "lat": 29.417502, "category": "commercial", "permit_type": "Comm Comm Equipment Permit", "permit_number": "COM-CEQ-PMT25-40700013", "project_name": "Minor Structures AT&T SX3111", "work_type": "New", "address": "727 E CESAR E CHAVEZ BLVD, City of San Antonio, TX 78205", "date_issued": "2025-01-28", "valuation": 15000.0}, {"lng": -98.527221, "lat": 29.309953, "category": "commercial", "permit_type": "Res New Building Permit", "permit_number": "RES-RBP-PMT25-36600295", "project_name": "Building No: NA; Unit No: NA", "work_type": "New", "address": "1314 NERIA LOOP, City of San Antonio, TX 78224", "date_issued": "2025-01-28", "valuation": 0}, {"lng": -98.571308, "lat": 29.337858, "category": "commercial", "permit_type": "Res New Building Permit", "permit_number": "RES-RBP-PMT25-36600301", "project_name": "Building No: 3822; Unit No: N/A", "work_type": "New", "address": "3822 BATES PLACE, City of San Antonio, TX 78211", "date_issued": "2025-01-28", "valuation": 0}, {"lng": -98.618132, "lat": 29.306939, "category": "commercial", "permit_type": "Res New Building Permit", "permit_number": "RES-RBP-PMT25-36600303", "project_name": "Building No: ; Unit No: NA", "work_type": "New", "address": "5919 SINGING TRAIL, City of San Antonio, TX 78073", "date_issued": "2025-01-28", "valuation": 0}, {"lng": -98.270026, "lat": 29.464195, "category": "commercial", "permit_type": "Res New Building Permit", "permit_number": "RES-RBP-PMT25-36600304", "project_name": "Building No: 3310; Unit No: N/A", "work_type": "New", "address": "3310 GINGHAM POINT, City of San Antonio, TX 78109", "date_issued": "2025-01-28", "valuation": 0}, {"lng": -98.429323, "lat": 29.308878, "category": "commercial", "permit_type": "Res New Building Permit", "permit_number": "RES-RBP-PMT25-36600308", "project_name": "Building No: ; Unit No: N/A", "work_type": "New", "address": "3654 GREENSFIELD WAY, City of San Antonio, TX 78223", "date_issued": "2025-01-28", "valuation": 0}, {"lng": -98.269489, "lat": 29.465067, "category": "commercial", "permit_type": "Res New Building Permit", "permit_number": "RES-RBP-PMT25-36600309", "project_name": "Building No: ; Unit No: N/A", "work_type": "New", "address": "3342 GINGHAM POINT, City of San Antonio, TX 78109", "date_issued": "2025-01-28", "valuation": 0}, {"lng": -98.27019, "lat": 29.463978, "category": "commercial", "permit_type": "Res New Building Permit", "permit_number": "RES-RBP-PMT25-36600310", "project_name": "Building No: ; Unit No: NA", "work_type": "New", "address": "3302 GINGHAM POINT, City of San Antonio, TX 78109", "date_issued": "2025-01-28", "valuation": 0}, {"lng": -98.617839, "lat": 29.307276, "category": "commercial", "permit_type": "Res New Building Permit", "permit_number": "RES-RBP-PMT25-36600313", "project_name": "Building No: 5903; Unit No: N/A", "work_type": "New", "address": "5903 SINGING TRAIL, City of San Antonio, TX 78073", "date_issued": "2025-01-28", "valuation": 0}, {"lng": -98.617982, "lat": 29.3071, "category": "commercial", "permit_type": "Res New Building Permit", "permit_number": "RES-RBP-PMT25-36600315", "project_name": "Building No: NA; Unit No: NA", "work_type": "New", "address": "5911 SINGING TRAIL, City of San Antonio, TX 78073", "date_issued": "2025-01-28", "valuation": 0}, {"lng": -98.487836, "lat": 29.327635, "category": "commercial", "permit_type": "Res New Building Permit", "permit_number": "RES-RBP-PMT25-36600317", "project_name": "Building No: 9402; Unit No: N/A", "work_type": "New", "address": "9402 HAMMERSTONE DR, City of San Antonio, TX 78221", "date_issued": "2025-01-28", "valuation": 0}, {"lng": -98.618055, "lat": 29.307046, "category": "commercial", "permit_type": "Res New Building Permit", "permit_number": "RES-RBP-PMT25-36600318", "project_name": "Building No: ; Unit No: N/A", "work_type": "New", "address": "5915 SINGING TRAIL, City of San Antonio, TX 78073", "date_issued": "2025-01-28", "valuation": 0}, {"lng": -98.27011, "lat": 29.464098, "category": "commercial", "permit_type": "Res New Building Permit", "permit_number": "RES-RBP-PMT25-36600319", "project_name": "Building No: ; Unit No: N/A", "work_type": "New", "address": "3306 GINGHAM POINT, City of San Antonio, TX 78109", "date_issued": "2025-01-28", "valuation": 0}, {"lng": -98.473237, "lat": 29.289658, "category": "commercial", "permit_type": "Res New Building Permit", "permit_number": "RES-RBP-PMT25-36600320", "project_name": "Building No: ; Unit No: N/A", "work_type": "New", "address": "13106 LORENA OCHOA, City of San Antonio, TX 78221", "date_issued": "2025-01-28", "valuation": 0}, {"lng": -98.640038, "lat": 29.346991, "category": "commercial", "permit_type": "Res New Building Permit", "permit_number": "RES-RBP-PMT25-36600324", "project_name": "Building No: NA; Unit No: N/A", "work_type": "New", "address": "7306 PERSEUS BROOK, City of San Antonio, TX 78252", "date_issued": "2025-01-28", "valuation": 0},